[
  {
    "hsaId": "SE2321000206-E00620",
    "name": "Hälsocentralen Kramfors",
    "address": "Bruksgatan 12-14",
    "phone": "0612-860 42",
    "internationalPhone": "+4661286042",
    "url": "https://www.1177.se/hitta-vard/kontaktkort/Halsocentralen-Kramfors/",
    "lat": 62.93324145490745,
    "lng": 17.780289916464852,
    "hasMvkServices": true,
    "hasListing": true,
    "videoOrChat": false,
    "vaccinatesForFlu": false,
    "vaccinatesForCovid19": false
  },
  {
    "hsaId": "SE2321000206-E00340",
    "name": "Hälsocentralen Nyland",
    "address": "Biskopsgatan 1, Nyland",
    "phone": "0612-77 15 35",
    "internationalPhone": "+46612771535",
    "url": "https://www.1177.se/hitta-vard/kontaktkort/Halsocentralen-Nyland/",
    "lat": 63.00607539604822,
    "lng": 17.764556000415226,
    "hasMvkServices": true,
    "hasListing": true,
    "videoOrChat": false,
    "vaccinatesForFlu": false,
    "vaccinatesForCovid19": false
  },
  {
    "hsaId": "SE2321000206-E00336",
    "name": "Hälsocentralen Liden",
    "address": "Husåsvägen 18, Liden",
    "phone": "0692-439 20",
    "internationalPhone": "+4669243920",
    "url": "https://www.1177.se/hitta-vard/kontaktkort/Halsocentralen-Liden/",
    "lat": 62.70040840401781,
    "lng": 16.803012828751818,
    "hasMvkServices": true,
    "hasListing": true,
    "videoOrChat": false,
    "vaccinatesForFlu": false,
    "vaccinatesForCovid19": false
  },
  {
    "hsaId": "SE2321000206-E00343",
    "name": "Hälsocentralen Sollefteå",
    "address": "Lasarettsgatan 1",
    "phone": "0620-194 50",
    "internationalPhone": "+4662019450",
    "url": "https://www.1177.se/hitta-vard/kontaktkort/Halsocentralen-Solleftea/",
    "lat": 63.17412364873974,
    "lng": 17.236573422273448,
    "hasMvkServices": true,
    "hasListing": true,
    "videoOrChat": false,
    "vaccinatesForFlu": false,
    "vaccinatesForCovid19": false
  },
  {
    "hsaId": "SE2321000206-E01608",
    "name": "Primärvårdsjour Sollefteå Kramfors",
    "address": "Akutmottagningen, Sollefteå sjukhus",
    "phone": "0611-800 00",
    "internationalPhone": "+4661180000",
    "url": "https://www.1177.se/hitta-vard/kontaktkort/Primarvardsjour-Solleftea-Kramfors/",
    "lat": 63.1748746667586,
    "lng": 17.23416806106144,
    "hasMvkServices": false,
    "hasListing": false,
    "videoOrChat": false,
    "vaccinatesForFlu": false,
    "vaccinatesForCovid19": false
  },
  {
    "hsaId": "SE2321000206-E00463",
    "name": "Hälsocentralen Södra sundet",
    "address": "Södra Vägen 5",
    "phone": "0611-87 07 10",
    "internationalPhone": "+46611870710",
    "url": "https://www.1177.se/hitta-vard/kontaktkort/Halsocentralen-Sodra-sundet/",
    "lat": 62.62440429993568,
    "lng": 17.9298362078272,
    "hasMvkServices": true,
    "hasListing": true,
    "videoOrChat": false,
    "vaccinatesForFlu": false,
    "vaccinatesForCovid19": false
  },
  {
    "hsaId": "SE2321000206-E01606",
    "name": "Primärvårdsjour Härnösand, Närvården Härnösand",
    "address": "Hälsocentralen Södra Sundet",
    "phone": "0611-800 00",
    "internationalPhone": "+4661180000",
    "url": "https://www.1177.se/hitta-vard/kontaktkort/Primarvardsjour-Harnosand-Narvarden-Harnosand/",
    "lat": 62.62451701927589,
    "lng": 17.930097667077128,
    "hasMvkServices": false,
    "hasListing": false,
    "videoOrChat": false,
    "vaccinatesForFlu": false,
    "vaccinatesForCovid19": false
  },
  {
    "hsaId": "SE2321000206-E00334",
    "name": "Hälsocentralen Höga Kusten, Ullånger",
    "address": "Vårdhemsvägen 2, Ullånger",
    "phone": "0613-71 11 01",
    "internationalPhone": "+46613711101",
    "url": "https://www.1177.se/hitta-vard/kontaktkort/Halsocentralen-Hoga-Kusten-Ullanger/",
    "lat": 63.01431926783636,
    "lng": 18.184569697550288,
    "hasMvkServices": true,
    "hasListing": true,
    "videoOrChat": false,
    "vaccinatesForFlu": false,
    "vaccinatesForCovid19": false
  },
  {
    "hsaId": "SE2321000206-E00766",
    "name": "Hälsocentralen Premicare Ljustadalen",
    "address": "Söndagsvägen 4, 863 34 Sundsbruk",
    "phone": "060-607 95 00",
    "internationalPhone": "+46606079500",
    "url": "https://www.1177.se/hitta-vard/kontaktkort/Halsocentralen-Premicare-Ljustadalen/",
    "lat": 62.4363914816745,
    "lng": 17.368787788181876,
    "hasMvkServices": true,
    "hasListing": true,
    "videoOrChat": false,
    "vaccinatesForFlu": false,
    "vaccinatesForCovid19": false
  },
  {
    "hsaId": "SE2321000206-E01144",
    "name": "Doktor.se Alnö Vårdcentral",
    "address": "Raholmsvägen 24, 865 31 Alnö",
    "phone": "060-740 48 00",
    "internationalPhone": "+46607404800",
    "url": "https://www.1177.se/hitta-vard/kontaktkort/Doktorse-Alno-Vardcentral/",
    "lat": 62.426426509972096,
    "lng": 17.41641582419798,
    "hasMvkServices": true,
    "hasListing": true,
    "videoOrChat": false,
    "vaccinatesForFlu": false,
    "vaccinatesForCovid19": false
  },
  {
    "hsaId": "SE2321000206-E00330",
    "name": "Hälsocentralen Granlo",
    "address": "Västra vägen 50, Sundsvall",
    "phone": "060-18 49 51",
    "internationalPhone": "+4660184951",
    "url": "https://www.1177.se/hitta-vard/kontaktkort/Halsocentralen-Granlo/",
    "lat": 62.40387028216546,
    "lng": 17.254854202707225,
    "hasMvkServices": true,
    "hasListing": true,
    "videoOrChat": false,
    "vaccinatesForFlu": false,
    "vaccinatesForCovid19": false
  },
  {
    "hsaId": "SE2321000206-E00538",
    "name": "Primärvårdsrehab, Sundsvall",
    "address": "Medborgargatan 30 D, Sundsvall",
    "phone": "060-13 52 25",
    "internationalPhone": "+4660135225",
    "url": "https://www.1177.se/hitta-vard/kontaktkort/Primarvardsrehab-Sundsvall/",
    "lat": 62.40046197418231,
    "lng": 17.3410153854916,
    "hasMvkServices": true,
    "hasListing": false,
    "videoOrChat": false,
    "vaccinatesForFlu": false,
    "vaccinatesForCovid19": false
  },
  {
    "hsaId": "SE2321000206-E00329",
    "name": "Hälsocentralen Gilleberget",
    "address": "Medborgargatan 30 D, 856 30 Sundsvall",
    "phone": "060-13 54 12",
    "internationalPhone": "+4660135412",
    "url": "https://www.1177.se/hitta-vard/kontaktkort/Halsocentralen-Gilleberget/",
    "lat": 62.40046197418231,
    "lng": 17.3410153854916,
    "hasMvkServices": true,
    "hasListing": true,
    "videoOrChat": false,
    "vaccinatesForFlu": false,
    "vaccinatesForCovid19": false
  },
  {
    "hsaId": "SE2321000206-E01605",
    "name": "Primärvårdsjour Sundsvall",
    "address": "Norrmalmsgatan 2, Hälsocentralen Centrum",
    "phone": "060-18 10 00",
    "internationalPhone": "+4660181000",
    "url": "https://www.1177.se/hitta-vard/kontaktkort/Primarvardsjour-Sundsvall/",
    "lat": 62.39558744694227,
    "lng": 17.31237550631085,
    "hasMvkServices": false,
    "hasListing": false,
    "videoOrChat": false,
    "vaccinatesForFlu": false,
    "vaccinatesForCovid19": false
  },
  {
    "hsaId": "SE2321000206-E00327",
    "name": "Hälsocentralen Centrum",
    "address": "Norrmalmsgatan 2, 852 34 Sundsvall",
    "phone": "060-18 24 10",
    "internationalPhone": "+4660182410",
    "url": "https://www.1177.se/hitta-vard/kontaktkort/Halsocentralen-Centrum/",
    "lat": 62.39558744694227,
    "lng": 17.31237550631085,
    "hasMvkServices": true,
    "hasListing": true,
    "videoOrChat": false,
    "vaccinatesForFlu": false,
    "vaccinatesForCovid19": false
  },
  {
    "hsaId": "SE2321000206-E00928",
    "name": "St Olof Vårdcentral, Sundsvall",
    "address": "Axvägen 6",
    "phone": "060-750 14 40",
    "internationalPhone": "+46607501440",
    "url": "https://www.1177.se/hitta-vard/kontaktkort/St-Olof-Vardcentral-Sundsvall/",
    "lat": 62.39256010119795,
    "lng": 17.26287446090739,
    "hasMvkServices": true,
    "hasListing": true,
    "videoOrChat": false,
    "vaccinatesForFlu": false,
    "vaccinatesForCovid19": false
  },
  {
    "hsaId": "SE2321000206-E00929",
    "name": "Doktor.se Sundsvall Vårdcentral",
    "address": "Skiftesvägen 1 854 63 Sundsvall",
    "phone": "060-658 12 10",
    "internationalPhone": "+46606581210",
    "url": "https://www.1177.se/hitta-vard/kontaktkort/Doktorse-Sundsvall-Vardcentral/",
    "lat": 62.37908096970746,
    "lng": 17.347093132289608,
    "hasMvkServices": true,
    "hasListing": true,
    "videoOrChat": false,
    "vaccinatesForFlu": false,
    "vaccinatesForCovid19": false
  },
  {
    "hsaId": "SE2321000206-E00689",
    "name": "Vårdcentralen Sidsjö, Sundsvall",
    "address": "Paviljongvägen 15 B",
    "phone": "060-750 20 30",
    "internationalPhone": "+46607502030",
    "url": "https://www.1177.se/hitta-vard/kontaktkort/Vardcentralen-Sidsjo-Sundsvall/",
    "lat": 62.37732289541066,
    "lng": 17.289154959952153,
    "hasMvkServices": true,
    "hasListing": true,
    "videoOrChat": false,
    "vaccinatesForFlu": false,
    "vaccinatesForCovid19": false
  },
  {
    "hsaId": "SE2321000214-E023610",
    "name": "Hammarstrands hälsocentral",
    "address": "Bölevägen 5, 844 32 Hammarstrand",
    "phone": "0696-68 25 02",
    "internationalPhone": "+46696682502",
    "url": "https://www.1177.se/hitta-vard/kontaktkort/Hammarstrands-halsocentral/",
    "lat": 63.11395549665216,
    "lng": 16.34753673625412,
    "hasMvkServices": true,
    "hasListing": true,
    "videoOrChat": false,
    "vaccinatesForFlu": false,
    "vaccinatesForCovid19": false
  },
  {
    "hsaId": "SE2321000206-E00338",
    "name": "Hälsocentralen Matfors",
    "address": "Skölevägen 19",
    "phone": "060-14 98 10",
    "internationalPhone": "+4660149810",
    "url": "https://www.1177.se/hitta-vard/kontaktkort/Halsocentralen-Matfors/",
    "lat": 62.348525018856556,
    "lng": 17.014423130377182,
    "hasMvkServices": true,
    "hasListing": true,
    "videoOrChat": false,
    "vaccinatesForFlu": false,
    "vaccinatesForCovid19": false
  },
  {
    "hsaId": "SE2321000206-E00437",
    "name": "Doktor.se Njurunda Vårdcentral",
    "address": "Affärsgatan 1",
    "phone": "060-51 53 00",
    "internationalPhone": "+4660515300",
    "url": "https://www.1177.se/hitta-vard/kontaktkort/Doktorse-Njurunda-Vardcentral/",
    "lat": 62.29689029683935,
    "lng": 17.378664080378908,
    "hasMvkServices": true,
    "hasListing": true,
    "videoOrChat": false,
    "vaccinatesForFlu": false,
    "vaccinatesForCovid19": false
  },
  {
    "hsaId": "SE2321000206-E00344",
    "name": "Hälsocentralen Stöde",
    "address": "Gyllenvägen 6, 864 41 Stöde",
    "phone": "0691-25 10 70",
    "internationalPhone": "+46691251070",
    "url": "https://www.1177.se/hitta-vard/kontaktkort/Halsocentralen-Stode/",
    "lat": 62.41871740439995,
    "lng": 16.58809561356754,
    "hasMvkServices": true,
    "hasListing": true,
    "videoOrChat": false,
    "vaccinatesForFlu": false,
    "vaccinatesForCovid19": false
  },
  {
    "hsaId": "SE2321000214-E023599",
    "name": "Kälarne hälsocentral",
    "address": "Tallgläntan 1 D, 844 61 Kälarne",
    "phone": "0696-166 60",
    "internationalPhone": "+4669616660",
    "url": "https://www.1177.se/hitta-vard/kontaktkort/Kalarne-halsocentral/",
    "lat": 62.978555665148775,
    "lng": 16.082910083538017,
    "hasMvkServices": true,
    "hasListing": true,
    "videoOrChat": false,
    "vaccinatesForFlu": false,
    "vaccinatesForCovid19": false
  },
  {
    "hsaId": "SE2321000206-E00321",
    "name": "Hälsocentralen Bjästa",
    "address": "Harmonivägen 1",
    "phone": "0660-899 53",
    "internationalPhone": "+4666089953",
    "url": "https://www.1177.se/hitta-vard/kontaktkort/Halsocentralen-Bjasta/",
    "lat": 63.20119183740432,
    "lng": 18.499933801719965,
    "hasMvkServices": true,
    "hasListing": true,
    "videoOrChat": false,
    "vaccinatesForFlu": false,
    "vaccinatesForCovid19": false
  },
  {
    "hsaId": "SE2321000206-E00438",
    "name": "Vårdcentralen Fränsta",
    "address": "Mårtensvägen 2, 841 71 Fränsta",
    "phone": "0691-25 10 10",
    "internationalPhone": "+46691251010",
    "url": "https://www.1177.se/hitta-vard/kontaktkort/Vardcentralen-Fransta/",
    "lat": 62.500909094703054,
    "lng": 16.166493074132607,
    "hasMvkServices": true,
    "hasListing": true,
    "videoOrChat": false,
    "vaccinatesForFlu": false,
    "vaccinatesForCovid19": false
  },
  {
    "hsaId": "SE2321000206-E00326",
    "name": "Hälsocentralen Bredbyn",
    "address": "Olympiavägen 8, 895 30 Bredbyn",
    "phone": "0661-65 41 01",
    "internationalPhone": "+46661654101",
    "url": "https://www.1177.se/hitta-vard/kontaktkort/Halsocentralen-Bredbyn/",
    "lat": 63.44774800890232,
    "lng": 18.109547105170666,
    "hasMvkServices": true,
    "hasListing": true,
    "videoOrChat": false,
    "vaccinatesForFlu": false,
    "vaccinatesForCovid19": false
  },
  {
    "hsaId": "SE2321000206-E00341",
    "name": "Hälsocentralen Själevad",
    "address": "Sjukhemsvägen 2 B",
    "phone": "0660-575 60",
    "internationalPhone": "+4666057560",
    "url": "https://www.1177.se/hitta-vard/kontaktkort/Halsocentralen-Sjalevad/",
    "lat": 63.29188316431282,
    "lng": 18.617731121524773,
    "hasMvkServices": true,
    "hasListing": true,
    "videoOrChat": false,
    "vaccinatesForFlu": false,
    "vaccinatesForCovid19": false
  },
  {
    "hsaId": "SE2321000206-E00328",
    "name": "Hälsocentralen Domsjö",
    "address": "Sundsvägen 11, 892 32 Domsjö",
    "phone": "0660-29 26 20",
    "internationalPhone": "+46660292620",
    "url": "https://www.1177.se/hitta-vard/kontaktkort/Halsocentralen-Domsjo/",
    "lat": 63.265920411773,
    "lng": 18.689921879762398,
    "hasMvkServices": true,
    "hasListing": true,
    "videoOrChat": false,
    "vaccinatesForFlu": false,
    "vaccinatesForCovid19": false
  },
  {
    "hsaId": "SE2321000206-E00325",
    "name": "Hälsocentralen Ankaret",
    "address": "Sjukhusgatan 5 B, Örnsköldsvik",
    "phone": "0660-29 27 10",
    "internationalPhone": "+46660292710",
    "url": "https://www.1177.se/hitta-vard/kontaktkort/Halsocentralen-Ankaret/",
    "lat": 63.29862307191591,
    "lng": 18.71398355267774,
    "hasMvkServices": true,
    "hasListing": true,
    "videoOrChat": false,
    "vaccinatesForFlu": false,
    "vaccinatesForCovid19": false
  },
  {
    "hsaId": "SE2321000206-E01597",
    "name": "Primärvårdsjour Örnsköldsvik",
    "address": "Örnsköldsviks sjukhus, Sjukhusgatan 8, 891 35 Örnsköldsvik",
    "phone": "0660-890 00",
    "internationalPhone": "+4666089000",
    "url": "https://www.1177.se/hitta-vard/kontaktkort/Primarvardsjour-Ornskoldsvik/",
    "lat": 63.29999429838452,
    "lng": 18.71366288897559,
    "hasMvkServices": false,
    "hasListing": false,
    "videoOrChat": false,
    "vaccinatesForFlu": false,
    "vaccinatesForCovid19": false
  },
  {
    "hsaId": "SE2321000206-E01198",
    "name": "BVC Premicare Gullänget Hälsocentral",
    "address": "Älgvägen 17, 891 43 Örnsköldsvik",
    "phone": "0660-559 00",
    "internationalPhone": "+4666055900",
    "url": "https://www.1177.se/hitta-vard/kontaktkort/BVC-Premicare-Gullanget-Halsocentral/",
    "lat": 63.31141788410628,
    "lng": 18.699384451496584,
    "hasMvkServices": true,
    "hasListing": false,
    "videoOrChat": false,
    "vaccinatesForFlu": false,
    "vaccinatesForCovid19": false
  },
  {
    "hsaId": "SE2321000206-E00577",
    "name": "Premicare Gullänget Hälsocentral, Örnsköldsvik",
    "address": "Älgvägen 17, 891 43 Örnsköldsvik",
    "phone": "0660-559 00",
    "internationalPhone": "+4666055900",
    "url": "https://www.1177.se/hitta-vard/kontaktkort/Premicare-Gullanget-Halsocentral-Ornskoldsvik/",
    "lat": 63.31141788410628,
    "lng": 18.699384451496584,
    "hasMvkServices": true,
    "hasListing": true,
    "videoOrChat": false,
    "vaccinatesForFlu": false,
    "vaccinatesForCovid19": false
  },
  {
    "hsaId": "SE2321000206-E00347",
    "name": "Hälsocentralen Ramsele",
    "address": "Läkarvägen 16, Ramsele",
    "phone": "0623-74 42 13",
    "internationalPhone": "+46623744213",
    "url": "https://www.1177.se/hitta-vard/kontaktkort/Halsocentralen-Ramsele/",
    "lat": 63.53552948800416,
    "lng": 16.468335906884008,
    "hasMvkServices": true,
    "hasListing": false,
    "videoOrChat": false,
    "vaccinatesForFlu": false,
    "vaccinatesForCovid19": false
  },
  {
    "hsaId": "SE2321000206-E00348",
    "name": "Hälsocentralen Ånge",
    "address": "Bankgatan 1",
    "phone": "0690-156 60",
    "internationalPhone": "+4669015660",
    "url": "https://www.1177.se/hitta-vard/kontaktkort/Halsocentralen-Ange/",
    "lat": 62.52449235305313,
    "lng": 15.661994807027176,
    "hasMvkServices": true,
    "hasListing": true,
    "videoOrChat": false,
    "vaccinatesForFlu": false,
    "vaccinatesForCovid19": false
  },
  {
    "hsaId": "SE2321000206-E00346",
    "name": "Hälsocentralen Junsele",
    "address": "Forumvägen 4, 880 37  Junsele",
    "phone": "0621-720 60",
    "internationalPhone": "+4662172060",
    "url": "https://www.1177.se/hitta-vard/kontaktkort/Halsocentralen-Junsele/",
    "lat": 63.694607625020325,
    "lng": 16.88054364443083,
    "hasMvkServices": true,
    "hasListing": false,
    "videoOrChat": false,
    "vaccinatesForFlu": false,
    "vaccinatesForCovid19": false
  },
  {
    "hsaId": "SE2321000214-E023611",
    "name": "Stuguns hälsocentral",
    "address": "Hansåkervägen 2, 844 51 Stugun",
    "phone": "0695-76 10 65",
    "internationalPhone": "+46695761065",
    "url": "https://www.1177.se/hitta-vard/kontaktkort/Stuguns-halsocentral/",
    "lat": 63.16776903501853,
    "lng": 15.593326124928005,
    "hasMvkServices": true,
    "hasListing": true,
    "videoOrChat": false,
    "vaccinatesForFlu": false,
    "vaccinatesForCovid19": false
  },
  {
    "hsaId": "SE2321000198-053911",
    "name": "Premicare barnavårdscentral Bergsjö hälsocentral",
    "address": "Bållebergsvägen 5, 829 50 Bergsjö",
    "phone": "070-481 93 60",
    "internationalPhone": "+46704819360",
    "url": "https://www.1177.se/hitta-vard/kontaktkort/Premicare-barnavardscentral-Bergsjo-halsocentral/",
    "lat": 61.97843194055542,
    "lng": 17.05500961016386,
    "hasMvkServices": false,
    "hasListing": false,
    "videoOrChat": false,
    "vaccinatesForFlu": false,
    "vaccinatesForCovid19": false
  },
  {
    "hsaId": "SE2321000198-041305",
    "name": "Premicare Bergsjö hälsocentral",
    "address": "Bållebergsvägen 5, 829 50 Bergsjö",
    "phone": "0652-56 48 00",
    "internationalPhone": "+46652564800",
    "url": "https://www.1177.se/hitta-vard/kontaktkort/Premicare-Bergsjo-halsocentral/",
    "lat": 61.97839674767335,
    "lng": 17.054931876744867,
    "hasMvkServices": true,
    "hasListing": true,
    "videoOrChat": false,
    "vaccinatesForFlu": false,
    "vaccinatesForCovid19": false
  },
  {
    "hsaId": "SE2321000214-E023598",
    "name": "Bräcke hälsocentral",
    "address": "Norrlandsgatan 19, 843 31 Bräcke",
    "phone": "0693-166 10",
    "internationalPhone": "+4669316610",
    "url": "https://www.1177.se/hitta-vard/kontaktkort/Bracke-halsocentral/",
    "lat": 62.74827385303551,
    "lng": 15.42579616670196,
    "hasMvkServices": true,
    "hasListing": true,
    "videoOrChat": false,
    "vaccinatesForFlu": false,
    "vaccinatesForCovid19": false
  },
  {
    "hsaId": "SE2321000198-021074",
    "name": "Harmångers hälsocentral",
    "address": "Backvägen 3, 829 95 Harmånger",
    "phone": "0652-365 00",
    "internationalPhone": "+4665236500",
    "url": "https://www.1177.se/hitta-vard/kontaktkort/Harmangers-halsocentral/",
    "lat": 61.92654365556914,
    "lng": 17.219371795087014,
    "hasMvkServices": true,
    "hasListing": true,
    "videoOrChat": false,
    "vaccinatesForFlu": false,
    "vaccinatesForCovid19": false
  },
  {
    "hsaId": "SE2321000206-E00332",
    "name": "Hälsocentralen Husum",
    "address": "Bruksvägen 187 D",
    "phone": "0663-199 20",
    "internationalPhone": "+4666319920",
    "url": "https://www.1177.se/hitta-vard/kontaktkort/Halsocentralen-Husum/",
    "lat": 63.3395717624059,
    "lng": 19.165393336298518,
    "hasMvkServices": true,
    "hasListing": true,
    "videoOrChat": false,
    "vaccinatesForFlu": false,
    "vaccinatesForCovid19": false
  },
  {
    "hsaId": "SE2321000214-E023615",
    "name": "Backe hälsocentral",
    "address": "Lasarettsvägen 20, 883 72 Backe",
    "phone": "0624-51 20 60",
    "internationalPhone": "+46624512060",
    "url": "https://www.1177.se/hitta-vard/kontaktkort/Backe-halsocentral/",
    "lat": 63.80576137069285,
    "lng": 16.410409030233097,
    "hasMvkServices": true,
    "hasListing": true,
    "videoOrChat": false,
    "vaccinatesForFlu": false,
    "vaccinatesForCovid19": false
  },
  {
    "hsaId": "SE2321000198-054429",
    "name": "Barnavårdscentral Delsbo Din hälsocentral",
    "address": "Björkgatan 3, 824 70 Delsbo",
    "phone": "0653-71 40 05",
    "internationalPhone": "+46653714005",
    "url": "https://www.1177.se/hitta-vard/kontaktkort/Barnavardscentral-Delsbo-Din-halsocentral/",
    "lat": 61.8008386658878,
    "lng": 16.557102812119556,
    "hasMvkServices": false,
    "hasListing": false,
    "videoOrChat": false,
    "vaccinatesForFlu": false,
    "vaccinatesForCovid19": false
  },
  {
    "hsaId": "SE2321000198-054428",
    "name": "Delsbo - Friggesund Din hälsocentral",
    "address": "Björkgatan 3, 824 70 Delsbo",
    "phone": "0653-71 40 00",
    "internationalPhone": "+46653714000",
    "url": "https://www.1177.se/hitta-vard/kontaktkort/Delsbo-Friggesund-Din-halsocentral/",
    "lat": 61.800496366160836,
    "lng": 16.557340958419438,
    "hasMvkServices": true,
    "hasListing": true,
    "videoOrChat": false,
    "vaccinatesForFlu": false,
    "vaccinatesForCovid19": false
  },
  {
    "hsaId": "SE2321000198-054430",
    "name": "Hudiksvall Din hälsocentral",
    "address": "Kålhagsgatan 20, 824 52 Hudiksvall",
    "phone": "0650-920 08",
    "internationalPhone": "+4665092008",
    "url": "https://www.1177.se/hitta-vard/kontaktkort/Hudiksvall-Din-halsocentral/",
    "lat": 61.728986038338974,
    "lng": 17.112368430017973,
    "hasMvkServices": true,
    "hasListing": true,
    "videoOrChat": false,
    "vaccinatesForFlu": false,
    "vaccinatesForCovid19": false
  },
  {
    "hsaId": "SE2321000198-054431",
    "name": "Barnavårdscentral Hudiksvall Din hälsocentral",
    "address": "Kålhagsgatan 20, 824 52 Hudiksvall",
    "phone": "0650-59 30 10",
    "internationalPhone": "+46650593010",
    "url": "https://www.1177.se/hitta-vard/kontaktkort/Barnavardscentral-Hudiksvall-Din-halsocentral/",
    "lat": 61.72894424544112,
    "lng": 17.112045031681895,
    "hasMvkServices": false,
    "hasListing": false,
    "videoOrChat": false,
    "vaccinatesForFlu": false,
    "vaccinatesForCovid19": false
  },
  {
    "hsaId": "SE2321000198-055175",
    "name": "Familjeläkarjour Hudiksvall",
    "address": "Kungsgatan 33, 824 43 Hudiksvall",
    "phone": "1177",
    "internationalPhone": "1177",
    "url": "https://www.1177.se/hitta-vard/kontaktkort/Familjelakarjour-Hudiksvall/",
    "lat": 61.72941882651355,
    "lng": 17.098897054192886,
    "hasMvkServices": false,
    "hasListing": false,
    "videoOrChat": false,
    "vaccinatesForFlu": false,
    "vaccinatesForCovid19": false
  },
  {
    "hsaId": "SE2321000198-022599",
    "name": "Premicare Varvet Hälsocentral",
    "address": "Varvsgatan 13, 824 50 Hudiksvall",
    "phone": "0650-365 00",
    "internationalPhone": "+4665036500",
    "url": "https://www.1177.se/hitta-vard/kontaktkort/Premicare-Varvet-Halsocentral/",
    "lat": 61.726314737291965,
    "lng": 17.121430483784735,
    "hasMvkServices": true,
    "hasListing": true,
    "videoOrChat": false,
    "vaccinatesForFlu": false,
    "vaccinatesForCovid19": false
  },
  {
    "hsaId": "SE2321000198-030575",
    "name": "Håstaholmens hälsocentral",
    "address": "Håstaholmen 3, 824 42 Hudiksvall",
    "phone": "0650-178 00",
    "internationalPhone": "+4665017800",
    "url": "https://www.1177.se/hitta-vard/kontaktkort/Hastaholmens-halsocentral/",
    "lat": 61.71790730808496,
    "lng": 17.105242424908404,
    "hasMvkServices": true,
    "hasListing": true,
    "videoOrChat": false,
    "vaccinatesForFlu": false,
    "vaccinatesForCovid19": false
  },
  {
    "hsaId": "SE2321000214-E023623",
    "name": "Brunflo hälsocentral",
    "address": "Gränsvägen 20, 834 31 Brunflo",
    "phone": "063-14 20 17",
    "internationalPhone": "+4663142017",
    "url": "https://www.1177.se/hitta-vard/kontaktkort/Brunflo-halsocentral/",
    "lat": 63.082301054800816,
    "lng": 14.83305514520402,
    "hasMvkServices": true,
    "hasListing": true,
    "videoOrChat": false,
    "vaccinatesForFlu": false,
    "vaccinatesForCovid19": false
  },
  {
    "hsaId": "SE2321000198-055176",
    "name": "Familjeläkarjour Ljusdal",
    "address": "Vårdslingan 16, 827 35 Ljusdal",
    "phone": "1177",
    "internationalPhone": "1177",
    "url": "https://www.1177.se/hitta-vard/kontaktkort/Familjelakarjour-Ljusdal/",
    "lat": 61.82942298570436,
    "lng": 16.108948922277964,
    "hasMvkServices": false,
    "hasListing": false,
    "videoOrChat": false,
    "vaccinatesForFlu": false,
    "vaccinatesForCovid19": false
  },
  {
    "hsaId": "SE2321000198-054439",
    "name": "Barnavårdscentral Ljusdal - Ramsjö Din hälsocentral",
    "address": "Lasarettsgatan 1 C, 827 35 Ljusdal",
    "phone": "0651-171 23",
    "internationalPhone": "+4665117123",
    "url": "https://www.1177.se/hitta-vard/kontaktkort/Barnavardscentral-Ljusdal-Ramsjo-Din-halsocentral/",
    "lat": 61.828253097565145,
    "lng": 16.1104746106188,
    "hasMvkServices": false,
    "hasListing": false,
    "videoOrChat": false,
    "vaccinatesForFlu": false,
    "vaccinatesForCovid19": false
  },
  {
    "hsaId": "SE2321000222-0000114",
    "name": "Nordmalings hälsocentral",
    "address": "Hemvägen 12, 914 31 Nordmaling",
    "phone": "090-785 91 04",
    "internationalPhone": "+46907859104",
    "url": "https://www.1177.se/hitta-vard/kontaktkort/Nordmalings-halsocentral/",
    "lat": 63.56314110015042,
    "lng": 19.50699285552043,
    "hasMvkServices": true,
    "hasListing": true,
    "videoOrChat": false,
    "vaccinatesForFlu": false,
    "vaccinatesForCovid19": false
  },
  {
    "hsaId": "SE2321000198-054433",
    "name": "Barnavårdscentral Iggesund Din hälsocentral",
    "address": "Skolgatan 1, 825 31 Iggesund",
    "phone": "0650-59 30 10",
    "internationalPhone": "+46650593010",
    "url": "https://www.1177.se/hitta-vard/kontaktkort/Barnavardscentral-Iggesund-Din-halsocentral/",
    "lat": 61.64504609306916,
    "lng": 17.075184631463312,
    "hasMvkServices": false,
    "hasListing": false,
    "videoOrChat": false,
    "vaccinatesForFlu": false,
    "vaccinatesForCovid19": false
  },
  {
    "hsaId": "SE2321000198-054432",
    "name": "Iggesund Din hälsocentral",
    "address": "Skolgatan 1, 825 31 Iggesund",
    "phone": "0650-928 00",
    "internationalPhone": "+4665092800",
    "url": "https://www.1177.se/hitta-vard/kontaktkort/Iggesund-Din-halsocentral/",
    "lat": 61.64504609306916,
    "lng": 17.075184631463312,
    "hasMvkServices": true,
    "hasListing": true,
    "videoOrChat": false,
    "vaccinatesForFlu": false,
    "vaccinatesForCovid19": false
  },
  {
    "hsaId": "SE2321000214-E023628",
    "name": "Torvalla hälsocentral, Östersund",
    "address": "Nävervägen 17, 831 72 Östersund",
    "phone": "063-14 22 88",
    "internationalPhone": "+4663142288",
    "url": "https://www.1177.se/hitta-vard/kontaktkort/Torvalla-halsocentral-Ostersund/",
    "lat": 63.15771608510451,
    "lng": 14.743395932571826,
    "hasMvkServices": true,
    "hasListing": true,
    "videoOrChat": false,
    "vaccinatesForFlu": false,
    "vaccinatesForCovid19": false
  },
  {
    "hsaId": "SE2321000214-E023625",
    "name": "Lits hälsocentral",
    "address": "Sörevägen 8, 836 31 Lit",
    "phone": "0642-447 47",
    "internationalPhone": "+4664244747",
    "url": "https://www.1177.se/hitta-vard/kontaktkort/Lits-halsocentral/",
    "lat": 63.31891410382354,
    "lng": 14.848861129102161,
    "hasMvkServices": true,
    "hasListing": true,
    "videoOrChat": false,
    "vaccinatesForFlu": false,
    "vaccinatesForCovid19": false
  },
  {
    "hsaId": "SE2321000214-E023627",
    "name": "Odensala hälsocentral, Östersund",
    "address": "Klövervägen 2, 831 65 Östersund",
    "phone": "063-14 22 00",
    "internationalPhone": "+4663142200",
    "url": "https://www.1177.se/hitta-vard/kontaktkort/Odensala-halsocentral-Ostersund/",
    "lat": 63.158121809500045,
    "lng": 14.70827736336665,
    "hasMvkServices": true,
    "hasListing": true,
    "videoOrChat": false,
    "vaccinatesForFlu": false,
    "vaccinatesForCovid19": false
  },
  {
    "hsaId": "SE2321000198-054436",
    "name": "Järvsö Din hälsocentral",
    "address": "Stationsgatan 19, 827 51 Järvsö",
    "phone": "0651-172 30",
    "internationalPhone": "+4665117230",
    "url": "https://www.1177.se/hitta-vard/kontaktkort/Jarvso-Din-halsocentral/",
    "lat": 61.71247844598504,
    "lng": 16.16983514302523,
    "hasMvkServices": true,
    "hasListing": true,
    "videoOrChat": false,
    "vaccinatesForFlu": false,
    "vaccinatesForCovid19": false
  },
  {
    "hsaId": "SE2321000198-054437",
    "name": "Barnavårdscentral Järvsö Din hälsocentral",
    "address": "Stationsgatan 19, 827 51 Järvsö",
    "phone": "0651-172 30",
    "internationalPhone": "+4665117230",
    "url": "https://www.1177.se/hitta-vard/kontaktkort/Barnavardscentral-Jarvso-Din-halsocentral/",
    "lat": 61.71245147643583,
    "lng": 16.169853732284402,
    "hasMvkServices": false,
    "hasListing": false,
    "videoOrChat": false,
    "vaccinatesForFlu": false,
    "vaccinatesForCovid19": false
  },
  {
    "hsaId": "SE2321000198-054435",
    "name": "Barnavårdscentral Färila - Los Din hälsocentral",
    "address": "Annbacksvägen 14, 827 60 Färila",
    "phone": "0651-170 54",
    "internationalPhone": "+4665117054",
    "url": "https://www.1177.se/hitta-vard/kontaktkort/Barnavardscentral-Farila-Los-Din-halsocentral/",
    "lat": 61.79739330123113,
    "lng": 15.84542910005815,
    "hasMvkServices": false,
    "hasListing": false,
    "videoOrChat": false,
    "vaccinatesForFlu": false,
    "vaccinatesForCovid19": false
  },
  {
    "hsaId": "SE2321000198-054434",
    "name": "Färila - Los Din hälsocentral",
    "address": "Annbacksvägen 14, 827 60 Färila",
    "phone": "0651-170 10",
    "internationalPhone": "+4665117010",
    "url": "https://www.1177.se/hitta-vard/kontaktkort/Farila-Los-Din-halsocentral/",
    "lat": 61.79740228523483,
    "lng": 15.845391194024248,
    "hasMvkServices": true,
    "hasListing": true,
    "videoOrChat": false,
    "vaccinatesForFlu": false,
    "vaccinatesForCovid19": false
  },
  {
    "hsaId": "SE2321000214-0046507",
    "name": "Hälsocentralen Ripan, Östersund",
    "address": "Prästgatan 47, 831 34 Östersund",
    "phone": "063-663 10 00",
    "internationalPhone": "+46636631000",
    "url": "https://www.1177.se/hitta-vard/kontaktkort/Halsocentralen-Ripan-Ostersund/",
    "lat": 63.17564538489202,
    "lng": 14.637482685358096,
    "hasMvkServices": true,
    "hasListing": true,
    "videoOrChat": false,
    "vaccinatesForFlu": false,
    "vaccinatesForCovid19": false
  },
  {
    "hsaId": "SE2321000214-E023629",
    "name": "Zätagränds hälsocentral, Östersund",
    "address": "Zätagränd 3, 831 30 Östersund",
    "phone": "063-14 21 60",
    "internationalPhone": "+4663142160",
    "url": "https://www.1177.se/hitta-vard/kontaktkort/Zatagrands-halsocentral-Ostersund/",
    "lat": 63.17764083573229,
    "lng": 14.635734246381572,
    "hasMvkServices": true,
    "hasListing": true,
    "videoOrChat": false,
    "vaccinatesForFlu": false,
    "vaccinatesForCovid19": false
  },
  {
    "hsaId": "SE2321000214-E023614",
    "name": "Strömsunds hälsocentral",
    "address": "Lövbergavägen 37, 833 33 Strömsund",
    "phone": "0670-166 00",
    "internationalPhone": "+4667016600",
    "url": "https://www.1177.se/hitta-vard/kontaktkort/Stromsunds-halsocentral/",
    "lat": 63.85886969731059,
    "lng": 15.564405347326058,
    "hasMvkServices": true,
    "hasListing": true,
    "videoOrChat": false,
    "vaccinatesForFlu": false,
    "vaccinatesForCovid19": false
  },
  {
    "hsaId": "SE2321000214-E023626",
    "name": "Lugnviks hälsocentral, Östersund",
    "address": "Midvägen 4, 831 51 Östersund",
    "phone": "063-14 22 75",
    "internationalPhone": "+4663142275",
    "url": "https://www.1177.se/hitta-vard/kontaktkort/Lugnviks-halsocentral-Ostersund/",
    "lat": 63.203983680907534,
    "lng": 14.634590573063376,
    "hasMvkServices": true,
    "hasListing": true,
    "videoOrChat": false,
    "vaccinatesForFlu": false,
    "vaccinatesForCovid19": false
  },
  {
    "hsaId": "SE2321000214-E023624",
    "name": "Frösö hälsocentral",
    "address": "Önevägen 8, 832 23 Frösön",
    "phone": "063-14 23 00",
    "internationalPhone": "+4663142300",
    "url": "https://www.1177.se/hitta-vard/kontaktkort/Froso-halsocentral/",
    "lat": 63.168151540769244,
    "lng": 14.602886293957322,
    "hasMvkServices": true,
    "hasListing": true,
    "videoOrChat": false,
    "vaccinatesForFlu": false,
    "vaccinatesForCovid19": false
  },
  {
    "hsaId": "SE2321000222-0269460",
    "name": "Barnmorskemottagning Åsele hälsocentral",
    "address": "Bryggaregatan 11 A, 919 32 Åsele",
    "phone": "090-785 91 76",
    "internationalPhone": "+46907859176",
    "url": "https://www.1177.se/hitta-vard/kontaktkort/Barnmorskemottagning-Asele-halsocentral/",
    "lat": 64.16082441098787,
    "lng": 17.35980077785845,
    "hasMvkServices": true,
    "hasListing": false,
    "videoOrChat": false,
    "vaccinatesForFlu": false,
    "vaccinatesForCovid19": false
  },
  {
    "hsaId": "SE2321000222-0000293",
    "name": "Åsele sjukstuga hälsocentral",
    "address": "Bryggaregatan 11 A, 919 32 Åsele",
    "phone": "090-785 91 76",
    "internationalPhone": "+46907859176",
    "url": "https://www.1177.se/hitta-vard/kontaktkort/Asele-sjukstuga-halsocentral/",
    "lat": 64.16094798300327,
    "lng": 17.359149785111434,
    "hasMvkServices": true,
    "hasListing": true,
    "videoOrChat": false,
    "vaccinatesForFlu": false,
    "vaccinatesForCovid19": false
  },
  {
    "hsaId": "SE2321000222-0000354",
    "name": "Bjurholms hälsocentral",
    "address": "Storgatan 16, 916 31 Bjurholm",
    "phone": "090-785 44 41",
    "internationalPhone": "+46907854441",
    "url": "https://www.1177.se/hitta-vard/kontaktkort/Bjurholms-halsocentral/",
    "lat": 63.92928599751182,
    "lng": 19.20680770966098,
    "hasMvkServices": true,
    "hasListing": true,
    "videoOrChat": false,
    "vaccinatesForFlu": false,
    "vaccinatesForCovid19": false
  },
  {
    "hsaId": "SE2321000214-E023595",
    "name": "Svenstaviks hälsocentral",
    "address": "Vallmovägen 6 C, 845 31 Svenstavik",
    "phone": "0687-166 00",
    "internationalPhone": "+4668716600",
    "url": "https://www.1177.se/hitta-vard/kontaktkort/Svenstaviks-halsocentral/",
    "lat": 62.7638309844593,
    "lng": 14.432138327897134,
    "hasMvkServices": true,
    "hasListing": true,
    "videoOrChat": false,
    "vaccinatesForFlu": false,
    "vaccinatesForCovid19": false
  },
  {
    "hsaId": "SE2321000222-0000113",
    "name": "Hörnefors hälsocentral",
    "address": "Bruksgatan 4, 905 32 Hörnefors",
    "phone": "090-785 91 05",
    "internationalPhone": "+46907859105",
    "url": "https://www.1177.se/hitta-vard/kontaktkort/Hornefors-halsocentral/",
    "lat": 63.624337480884165,
    "lng": 19.909182397089975,
    "hasMvkServices": true,
    "hasListing": true,
    "videoOrChat": false,
    "vaccinatesForFlu": false,
    "vaccinatesForCovid19": false
  },
  {
    "hsaId": "SE2321000214-E013586",
    "name": "Myrvikens hälsocentral",
    "address": "Dalsätravägen 6 A, 845 71 Oviken",
    "phone": "0643-44 55 20",
    "internationalPhone": "+46643445520",
    "url": "https://www.1177.se/hitta-vard/kontaktkort/Myrvikens-halsocentral/",
    "lat": 63.00020466497422,
    "lng": 14.33395288490124,
    "hasMvkServices": true,
    "hasListing": true,
    "videoOrChat": false,
    "vaccinatesForFlu": false,
    "vaccinatesForCovid19": false
  },
  {
    "hsaId": "SE2321000214-E023606",
    "name": "Krokoms hälsocentral",
    "address": "Genvägen 5, 835 31 Krokom",
    "phone": "0640-166 00",
    "internationalPhone": "+4664016600",
    "url": "https://www.1177.se/hitta-vard/kontaktkort/Krokoms-halsocentral/",
    "lat": 63.327218678174255,
    "lng": 14.45206989578059,
    "hasMvkServices": true,
    "hasListing": true,
    "videoOrChat": false,
    "vaccinatesForFlu": false,
    "vaccinatesForCovid19": false
  },
  {
    "hsaId": "SE2321000222-0000292",
    "name": "Dorotea sjukstuga hälsocentral",
    "address": "Nygatan 19, 917 31 Dorotea",
    "phone": "090-785 91 75",
    "internationalPhone": "+46907859175",
    "url": "https://www.1177.se/hitta-vard/kontaktkort/Dorotea-sjukstuga-halsocentral/",
    "lat": 64.25937500733974,
    "lng": 16.418131571995104,
    "hasMvkServices": true,
    "hasListing": true,
    "videoOrChat": false,
    "vaccinatesForFlu": false,
    "vaccinatesForCovid19": false
  },
  {
    "hsaId": "SE2321000198-054446",
    "name": "Barnavårdscentral Arbrå Din hälsocentral",
    "address": "Stationsesplanaden 10, 821 61 Arbrå",
    "phone": "0278-388 80",
    "internationalPhone": "+4627838880",
    "url": "https://www.1177.se/hitta-vard/kontaktkort/Barnavardscentral-Arbra-Din-halsocentral/",
    "lat": 61.470443945954926,
    "lng": 16.37444102058506,
    "hasMvkServices": false,
    "hasListing": false,
    "videoOrChat": false,
    "vaccinatesForFlu": false,
    "vaccinatesForCovid19": false
  },
  {
    "hsaId": "SE2321000198-054445",
    "name": "Arbrå Din hälsocentral",
    "address": "Stationsesplanaden 10, 821 61 Arbrå",
    "phone": "0278-388 00",
    "internationalPhone": "+4627838800",
    "url": "https://www.1177.se/hitta-vard/kontaktkort/Arbra-Din-halsocentral/",
    "lat": 61.470443945954926,
    "lng": 16.37444102058506,
    "hasMvkServices": true,
    "hasListing": true,
    "videoOrChat": false,
    "vaccinatesForFlu": false,
    "vaccinatesForCovid19": false
  },
  {
    "hsaId": "SE2321000214-E023607",
    "name": "Föllinge hälsocentral",
    "address": "Storgatan 12, 835 61 Föllinge",
    "phone": "0645-71 51 30",
    "internationalPhone": "+46645715130",
    "url": "https://www.1177.se/hitta-vard/kontaktkort/Follinge-halsocentral/",
    "lat": 63.674117411649284,
    "lng": 14.613687508365562,
    "hasMvkServices": true,
    "hasListing": true,
    "videoOrChat": false,
    "vaccinatesForFlu": false,
    "vaccinatesForCovid19": false
  },
  {
    "hsaId": "SE2321000222-0269453",
    "name": "Barnmorskemottagning Vännäs hälsocentral",
    "address": "Umevägen 6, 911 32 Vännäs",
    "phone": "090-785 44 50",
    "internationalPhone": "+46907854450",
    "url": "https://www.1177.se/hitta-vard/kontaktkort/Barnmorskemottagning-Vannas-halsocentral/",
    "lat": 63.90570770806057,
    "lng": 19.754742709768422,
    "hasMvkServices": true,
    "hasListing": false,
    "videoOrChat": false,
    "vaccinatesForFlu": false,
    "vaccinatesForCovid19": false
  },
  {
    "hsaId": "SE2321000222-0269451",
    "name": "Barnhälsovård Vännäs hälsocentral",
    "address": "Umevägen 6, 911 32 Vännäs",
    "phone": "090-785 44 50",
    "internationalPhone": "+46907854450",
    "url": "https://www.1177.se/hitta-vard/kontaktkort/Barnhalsovard-Vannas-halsocentral/",
    "lat": 63.90570770806057,
    "lng": 19.754742709768422,
    "hasMvkServices": true,
    "hasListing": false,
    "videoOrChat": false,
    "vaccinatesForFlu": false,
    "vaccinatesForCovid19": false
  },
  {
    "hsaId": "SE2321000222-0000356",
    "name": "Vännäs hälsocentral",
    "address": "Umevägen 56, 911 31 Vännäs",
    "phone": "090-785 44 50",
    "internationalPhone": "+46907854450",
    "url": "https://www.1177.se/hitta-vard/kontaktkort/Vannas-halsocentral/",
    "lat": 63.90955870161272,
    "lng": 19.77323730765729,
    "hasMvkServices": true,
    "hasListing": true,
    "videoOrChat": false,
    "vaccinatesForFlu": false,
    "vaccinatesForCovid19": false
  },
  {
    "hsaId": "SE2321000214-E023620",
    "name": "Hallens hälsocentral",
    "address": "Hallenvägen 41, 845 91 Hallen",
    "phone": "0643-44 55 00",
    "internationalPhone": "+46643445500",
    "url": "https://www.1177.se/hitta-vard/kontaktkort/Hallens-halsocentral/",
    "lat": 63.177154555108785,
    "lng": 14.089823155293574,
    "hasMvkServices": true,
    "hasListing": true,
    "videoOrChat": false,
    "vaccinatesForFlu": false,
    "vaccinatesForCovid19": false
  },
  {
    "hsaId": "SE2321000198-024640",
    "name": "Söderhamnsfjärdens hälsocentral",
    "address": "Norra Hamngatan 41, 826 37 Söderhamn",
    "phone": "0270-707 00",
    "internationalPhone": "+4627070700",
    "url": "https://www.1177.se/hitta-vard/kontaktkort/Soderhamnsfjardens-halsocentral/",
    "lat": 61.30771292614012,
    "lng": 17.06901603869868,
    "hasMvkServices": true,
    "hasListing": true,
    "videoOrChat": false,
    "vaccinatesForFlu": false,
    "vaccinatesForCovid19": false
  },
  {
    "hsaId": "SE2321000198-019915",
    "name": "Oxtorgets hälsocentral",
    "address": "Rustkammaregatan 1, 826 32 Söderhamn",
    "phone": "0270-154 20",
    "internationalPhone": "+4627015420",
    "url": "https://www.1177.se/hitta-vard/kontaktkort/Oxtorgets-halsocentral/",
    "lat": 61.30203900295033,
    "lng": 17.04680472853071,
    "hasMvkServices": true,
    "hasListing": true,
    "videoOrChat": false,
    "vaccinatesForFlu": false,
    "vaccinatesForCovid19": false
  },
  {
    "hsaId": "SE2321000198-055177",
    "name": "Familjeläkarjour Söderhamn",
    "address": "Trädgådsgatan, 826 81 Söderhamn",
    "phone": "1177",
    "internationalPhone": "1177",
    "url": "https://www.1177.se/hitta-vard/kontaktkort/Familjelakarjour-Soderhamn/",
    "lat": 61.29912154255242,
    "lng": 17.05665379782245,
    "hasMvkServices": false,
    "hasListing": false,
    "videoOrChat": false,
    "vaccinatesForFlu": false,
    "vaccinatesForCovid19": false
  },
  {
    "hsaId": "SE2321000198-054455",
    "name": "Barnavårdscentral Söderhamn Din hälsocentral",
    "address": "Trädgårdsgatan 26, 826 32 Söderhamn",
    "phone": "0270-777 90",
    "internationalPhone": "+4627077790",
    "url": "https://www.1177.se/hitta-vard/kontaktkort/Barnavardscentral-Soderhamn-Din-halsocentral/",
    "lat": 61.29912154255242,
    "lng": 17.05665379782245,
    "hasMvkServices": false,
    "hasListing": false,
    "videoOrChat": false,
    "vaccinatesForFlu": false,
    "vaccinatesForCovid19": false
  },
  {
    "hsaId": "SE2321000198-054454",
    "name": "Söderhamn Din hälsocentral",
    "address": "Trädgårdsgatan 36, 826 32 Söderhamn",
    "phone": "0270-772 00",
    "internationalPhone": "+4627077200",
    "url": "https://www.1177.se/hitta-vard/kontaktkort/Soderhamn-Din-halsocentral/",
    "lat": 61.29723737502568,
    "lng": 17.0585379599358,
    "hasMvkServices": true,
    "hasListing": true,
    "videoOrChat": false,
    "vaccinatesForFlu": false,
    "vaccinatesForCovid19": false
  },
  {
    "hsaId": "SE2321000198-024439",
    "name": "Premicare E-Center Hälsocentral",
    "address": "Stickvägen 2, 826 40 Söderhamn",
    "phone": "0270-100 00",
    "internationalPhone": "+4627010000",
    "url": "https://www.1177.se/hitta-vard/kontaktkort/Premicare-E-Center-Halsocentral/",
    "lat": 61.29426326280919,
    "lng": 17.018363343270533,
    "hasMvkServices": true,
    "hasListing": true,
    "videoOrChat": false,
    "vaccinatesForFlu": false,
    "vaccinatesForCovid19": false
  },
  {
    "hsaId": "SE2321000198-047263",
    "name": "Barnavårdscentral Bollnäs hälsocentral",
    "address": "Läroverksgatan 47, 821 33 Bollnäs",
    "phone": "0278-62 22 00",
    "internationalPhone": "+46278622200",
    "url": "https://www.1177.se/hitta-vard/kontaktkort/Barnavardscentral-Bollnas-halsocentral/",
    "lat": 61.352797891164876,
    "lng": 16.388698461252233,
    "hasMvkServices": true,
    "hasListing": false,
    "videoOrChat": false,
    "vaccinatesForFlu": false,
    "vaccinatesForCovid19": false
  },
  {
    "hsaId": "SE2321000198-047259",
    "name": "Bollnäs hälsocentral",
    "address": "Sjukhusvägen 81, 821 31 Bollnäs",
    "phone": "0278-62 22 00",
    "internationalPhone": "+46278622200",
    "url": "https://www.1177.se/hitta-vard/kontaktkort/Bollnas-halsocentral/",
    "lat": 61.35391005590853,
    "lng": 16.360945150321594,
    "hasMvkServices": true,
    "hasListing": true,
    "videoOrChat": false,
    "vaccinatesForFlu": false,
    "vaccinatesForCovid19": false
  },
  {
    "hsaId": "SE2321000222-0000104",
    "name": "Backens hälsocentral",
    "address": "Manusgränd 3, 901 24 Umeå",
    "phone": "090-785 44 43",
    "internationalPhone": "+46907854443",
    "url": "https://www.1177.se/hitta-vard/kontaktkort/Backens-halsocentral/",
    "lat": 63.83722988837268,
    "lng": 20.163080811099466,
    "hasMvkServices": true,
    "hasListing": true,
    "videoOrChat": false,
    "vaccinatesForFlu": false,
    "vaccinatesForCovid19": false
  },
  {
    "hsaId": "SE2321000222-0000103",
    "name": "Holmsunds hälsocentral",
    "address": "Himmelska Fridens Torg 7, 913 31 Holmsund",
    "phone": "090-785 91 03",
    "internationalPhone": "+46907859103",
    "url": "https://www.1177.se/hitta-vard/kontaktkort/Holmsunds-halsocentral/",
    "lat": 63.70732398241559,
    "lng": 20.36503865828701,
    "hasMvkServices": true,
    "hasListing": true,
    "videoOrChat": false,
    "vaccinatesForFlu": false,
    "vaccinatesForCovid19": false
  },
  {
    "hsaId": "SE2321000222-0000112",
    "name": "Tegs hälsocentral",
    "address": "Tegsplan 2C, 904 20 Umeå",
    "phone": "090-785 44 56",
    "internationalPhone": "+46907854456",
    "url": "https://www.1177.se/hitta-vard/kontaktkort/Tegs-halsocentral/",
    "lat": 63.820570789783865,
    "lng": 20.253714356041783,
    "hasMvkServices": true,
    "hasListing": true,
    "videoOrChat": false,
    "vaccinatesForFlu": false,
    "vaccinatesForCovid19": false
  },
  {
    "hsaId": "SE2321000222-0255068",
    "name": "Husläkarna Hälsocentral i Umeå",
    "address": "Storgatan 28 B, 903 21 Umeå",
    "phone": "090-785 93 88",
    "internationalPhone": "+46907859388",
    "url": "https://www.1177.se/hitta-vard/kontaktkort/Huslakarna-Halsocentral-i-Umea/",
    "lat": 63.82724933424844,
    "lng": 20.247261212432402,
    "hasMvkServices": true,
    "hasListing": true,
    "videoOrChat": false,
    "vaccinatesForFlu": false,
    "vaccinatesForCovid19": false
  },
  {
    "hsaId": "SE2321000222-0255155",
    "name": "Capio hälsocentral Dragonen",
    "address": "Ridvägen 12, 903 25 Umeå",
    "phone": "090-785 91 48",
    "internationalPhone": "+46907859148",
    "url": "https://www.1177.se/hitta-vard/kontaktkort/Capio-halsocentral-Dragonen/",
    "lat": 63.832758648688774,
    "lng": 20.25250669887509,
    "hasMvkServices": true,
    "hasListing": true,
    "videoOrChat": false,
    "vaccinatesForFlu": false,
    "vaccinatesForCovid19": false
  },
  {
    "hsaId": "SE2321000222-0255072",
    "name": "Citymottagningen hälsocentral",
    "address": "Nygatan 19B, 903 27 Umeå",
    "phone": "090-785 93 21",
    "internationalPhone": "+46907859321",
    "url": "https://www.1177.se/hitta-vard/kontaktkort/Citymottagningen-halsocentral/",
    "lat": 63.827668127510485,
    "lng": 20.26427806385064,
    "hasMvkServices": true,
    "hasListing": true,
    "videoOrChat": false,
    "vaccinatesForFlu": false,
    "vaccinatesForCovid19": false
  },
  {
    "hsaId": "SE2321000198-054451",
    "name": "Barnavårdscentral Linden Din hälsocentral",
    "address": "C D Ekmans Väg 37, 820 23 Bergvik",
    "phone": "0270-772 82",
    "internationalPhone": "+4627077282",
    "url": "https://www.1177.se/hitta-vard/kontaktkort/Barnavardscentral-Linden-Din-halsocentral/",
    "lat": 61.26077607069913,
    "lng": 16.827744951361954,
    "hasMvkServices": false,
    "hasListing": false,
    "videoOrChat": false,
    "vaccinatesForFlu": false,
    "vaccinatesForCovid19": false
  },
  {
    "hsaId": "SE2321000198-054450",
    "name": "Linden Din hälsocentral",
    "address": "C D Ekmans Väg 37, 826 67 Bergvik",
    "phone": "0270-733 99",
    "internationalPhone": "+4627073399",
    "url": "https://www.1177.se/hitta-vard/kontaktkort/Linden-Din-halsocentral/",
    "lat": 61.26077607069913,
    "lng": 16.827744951361954,
    "hasMvkServices": true,
    "hasListing": true,
    "videoOrChat": false,
    "vaccinatesForFlu": false,
    "vaccinatesForCovid19": false
  },
  {
    "hsaId": "SE2321000214-E023603",
    "name": "Svegs hälsocentral",
    "address": "Herrögatan 31, 842 34 Sveg",
    "phone": "0680-166 00",
    "internationalPhone": "+4668016600",
    "url": "https://www.1177.se/hitta-vard/kontaktkort/Svegs-halsocentral/",
    "lat": 62.039557366553005,
    "lng": 14.3532177909689,
    "hasMvkServices": true,
    "hasListing": true,
    "videoOrChat": false,
    "vaccinatesForFlu": false,
    "vaccinatesForCovid19": false
  },
  {
    "hsaId": "SE2321000222-0255071",
    "name": "Capio Hälsocentral Norrlandskliniken",
    "address": "Glimmervägen 5 E, 907 40 Umeå",
    "phone": "090-785 93 22",
    "internationalPhone": "+46907859322",
    "url": "https://www.1177.se/hitta-vard/kontaktkort/Capio-Halsocentral-Norrlandskliniken/",
    "lat": 63.804754920960285,
    "lng": 20.321609843551045,
    "hasMvkServices": true,
    "hasListing": true,
    "videoOrChat": false,
    "vaccinatesForFlu": false,
    "vaccinatesForCovid19": false
  },
  {
    "hsaId": "SE2321000222-0257736",
    "name": "Primärvårdsjour Umeå",
    "address": "Tvistevägen 2, 907 36 Umeå",
    "phone": "1177",
    "internationalPhone": "1177",
    "url": "https://www.1177.se/hitta-vard/kontaktkort/Primarvardsjour-Umea/",
    "lat": 63.81499142292883,
    "lng": 20.316742449489357,
    "hasMvkServices": false,
    "hasListing": false,
    "videoOrChat": false,
    "vaccinatesForFlu": false,
    "vaccinatesForCovid19": false
  },
  {
    "hsaId": "SE2321000222-0000115",
    "name": "Ålidhems hälsocentral",
    "address": "Tvistevägen 2, 907 36 Umeå",
    "phone": "090-785 44 58",
    "internationalPhone": "+46907854458",
    "url": "https://www.1177.se/hitta-vard/kontaktkort/Alidhems-halsocentral/",
    "lat": 63.81499142292883,
    "lng": 20.316742449489357,
    "hasMvkServices": true,
    "hasListing": true,
    "videoOrChat": false,
    "vaccinatesForFlu": false,
    "vaccinatesForCovid19": false
  },
  {
    "hsaId": "SE2321000198-054444",
    "name": "Barnavårdscentral Alfta Din hälsocentral",
    "address": "Stationsgatan 3, 822 30 Alfta",
    "phone": "0271-196 00",
    "internationalPhone": "+4627119600",
    "url": "https://www.1177.se/hitta-vard/kontaktkort/Barnavardscentral-Alfta-Din-halsocentral/",
    "lat": 61.3458037187291,
    "lng": 16.069515578454485,
    "hasMvkServices": false,
    "hasListing": false,
    "videoOrChat": false,
    "vaccinatesForFlu": false,
    "vaccinatesForCovid19": false
  },
  {
    "hsaId": "SE2321000198-054443",
    "name": "Alfta Din hälsocentral",
    "address": "Stationsgatan 3, 822 30 Alfta",
    "phone": "0271-196 00",
    "internationalPhone": "+4627119600",
    "url": "https://www.1177.se/hitta-vard/kontaktkort/Alfta-Din-halsocentral/",
    "lat": 61.3458037187291,
    "lng": 16.069515578454485,
    "hasMvkServices": true,
    "hasListing": true,
    "videoOrChat": false,
    "vaccinatesForFlu": false,
    "vaccinatesForCovid19": false
  },
  {
    "hsaId": "SE2321000198-047258",
    "name": "Voxnadalens hälsocentral",
    "address": "Långgatan 59, 822 30 Alfta",
    "phone": "0271-555 00",
    "internationalPhone": "+4627155500",
    "url": "https://www.1177.se/hitta-vard/kontaktkort/Voxnadalens-halsocentral/",
    "lat": 61.345629821342044,
    "lng": 16.06661792813395,
    "hasMvkServices": true,
    "hasListing": true,
    "videoOrChat": false,
    "vaccinatesForFlu": false,
    "vaccinatesForCovid19": false
  },
  {
    "hsaId": "SE2321000222-0000110",
    "name": "Mariehems hälsocentral",
    "address": "Morkullevägen 9, 906 51 Umeå",
    "phone": "090-785 44 44",
    "internationalPhone": "+46907854444",
    "url": "https://www.1177.se/hitta-vard/kontaktkort/Mariehems-halsocentral/",
    "lat": 63.838617372997795,
    "lng": 20.328022983296588,
    "hasMvkServices": true,
    "hasListing": true,
    "videoOrChat": false,
    "vaccinatesForFlu": false,
    "vaccinatesForCovid19": false
  },
  {
    "hsaId": "SE2321000222-0000105",
    "name": "Ersboda hälsocentral",
    "address": "Hälsogränd 3, 906 25 Umeå",
    "phone": "090-785 44 57",
    "internationalPhone": "+46907854457",
    "url": "https://www.1177.se/hitta-vard/kontaktkort/Ersboda-halsocentral/",
    "lat": 63.85660370244311,
    "lng": 20.317044179291425,
    "hasMvkServices": true,
    "hasListing": true,
    "videoOrChat": false,
    "vaccinatesForFlu": false,
    "vaccinatesForCovid19": false
  },
  {
    "hsaId": "SE2321000198-054448",
    "name": "Barnavårdscentral Edsbyn Din hälsocentral",
    "address": "Sporthallsvägen 2, 828 33 Edsbyn",
    "phone": "0271-272 56",
    "internationalPhone": "+4627127256",
    "url": "https://www.1177.se/hitta-vard/kontaktkort/Barnavardscentral-Edsbyn-Din-halsocentral/",
    "lat": 61.37990759467902,
    "lng": 15.810413307641427,
    "hasMvkServices": false,
    "hasListing": false,
    "videoOrChat": false,
    "vaccinatesForFlu": false,
    "vaccinatesForCovid19": false
  },
  {
    "hsaId": "SE2321000198-054447",
    "name": "Edsbyn Din hälsocentral",
    "address": "Sporthallsvägen 2, 828 33 Edsbyn",
    "phone": "0271-272 50",
    "internationalPhone": "+4627127250",
    "url": "https://www.1177.se/hitta-vard/kontaktkort/Edsbyn-Din-halsocentral/",
    "lat": 61.37984477950287,
    "lng": 15.810375888542682,
    "hasMvkServices": true,
    "hasListing": true,
    "videoOrChat": false,
    "vaccinatesForFlu": false,
    "vaccinatesForCovid19": false
  },
  {
    "hsaId": "SE2321000198-054452",
    "name": "Kilafors Din hälsocentral",
    "address": "Stationsgatan 2, 823 30 Kilafors",
    "phone": "0278-388 50",
    "internationalPhone": "+4627838850",
    "url": "https://www.1177.se/hitta-vard/kontaktkort/Kilafors-Din-halsocentral/",
    "lat": 61.230655218185035,
    "lng": 16.568815940950177,
    "hasMvkServices": false,
    "hasListing": true,
    "videoOrChat": false,
    "vaccinatesForFlu": false,
    "vaccinatesForCovid19": false
  },
  {
    "hsaId": "SE2321000198-054453",
    "name": "Barnavårdscentral Kilafors Din hälsocentral",
    "address": "Stationsgatan 2, 823 30 Kilafors",
    "phone": "0278-388 80",
    "internationalPhone": "+4627838880",
    "url": "https://www.1177.se/hitta-vard/kontaktkort/Barnavardscentral-Kilafors-Din-halsocentral/",
    "lat": 61.230655218185035,
    "lng": 16.568815940950177,
    "hasMvkServices": false,
    "hasListing": false,
    "videoOrChat": false,
    "vaccinatesForFlu": false,
    "vaccinatesForCovid19": false
  },
  {
    "hsaId": "SE2321000222-0000355",
    "name": "Vindelns hälsocentral",
    "address": "Storvägen 56, 922 31 Vindeln",
    "phone": "090-785 44 42",
    "internationalPhone": "+46907854442",
    "url": "https://www.1177.se/hitta-vard/kontaktkort/Vindelns-halsocentral/",
    "lat": 64.20117474404158,
    "lng": 19.713726275515782,
    "hasMvkServices": true,
    "hasListing": true,
    "videoOrChat": false,
    "vaccinatesForFlu": false,
    "vaccinatesForCovid19": false
  },
  {
    "hsaId": "SE2321000222-0269452",
    "name": "Barnmorskemottagning Vindelns hälsocentral",
    "address": "Storvägen 56, 922 31 Vindeln",
    "phone": "0933-138 11",
    "internationalPhone": "+4693313811",
    "url": "https://www.1177.se/hitta-vard/kontaktkort/Barnmorskemottagning-Vindelns-halsocentral/",
    "lat": 64.20117474404158,
    "lng": 19.713726275515782,
    "hasMvkServices": true,
    "hasListing": false,
    "videoOrChat": false,
    "vaccinatesForFlu": false,
    "vaccinatesForCovid19": false
  },
  {
    "hsaId": "SE2321000222-0269450",
    "name": "Barnhälsovård Vindelns hälsocentral",
    "address": "Storvägen 56, 922 31 Vindeln",
    "phone": "090-785 44 42",
    "internationalPhone": "+46907854442",
    "url": "https://www.1177.se/hitta-vard/kontaktkort/Barnhalsovard-Vindelns-halsocentral/",
    "lat": 64.20117474404158,
    "lng": 19.713726275515782,
    "hasMvkServices": true,
    "hasListing": false,
    "videoOrChat": false,
    "vaccinatesForFlu": false,
    "vaccinatesForCovid19": false
  },
  {
    "hsaId": "SE2321000222-0269446",
    "name": "Barnhälsovård Sävar hälsocentral",
    "address": "Kungsvägen 4A, 918 31 Sävar",
    "phone": "090-785 44 47",
    "internationalPhone": "+46907854447",
    "url": "https://www.1177.se/hitta-vard/kontaktkort/Barnhalsovard-Savar-halsocentral/",
    "lat": 63.89800993039202,
    "lng": 20.55085088296117,
    "hasMvkServices": true,
    "hasListing": false,
    "videoOrChat": false,
    "vaccinatesForFlu": false,
    "vaccinatesForCovid19": false
  },
  {
    "hsaId": "SE2321000222-0269447",
    "name": "Barnmorskemottagning Sävar hälsocentral",
    "address": "Kungsvägen 4 A, 918 31 Sävar",
    "phone": "090-785 44 47",
    "internationalPhone": "+46907854447",
    "url": "https://www.1177.se/hitta-vard/kontaktkort/Barnmorskemottagning-Savar-halsocentral/",
    "lat": 63.89800993039202,
    "lng": 20.55085088296117,
    "hasMvkServices": true,
    "hasListing": false,
    "videoOrChat": false,
    "vaccinatesForFlu": false,
    "vaccinatesForCovid19": false
  },
  {
    "hsaId": "SE2321000222-0000111",
    "name": "Sävar hälsocentral",
    "address": "Kungsvägen 8A, 918 31 Sävar",
    "phone": "090-785 44 47",
    "internationalPhone": "+46907854447",
    "url": "https://www.1177.se/hitta-vard/kontaktkort/Savar-halsocentral/",
    "lat": 63.898436261079766,
    "lng": 20.551555586055475,
    "hasMvkServices": true,
    "hasListing": true,
    "videoOrChat": false,
    "vaccinatesForFlu": false,
    "vaccinatesForCovid19": false
  },
  {
    "hsaId": "SE2321000222-0241688",
    "name": "Vilhelmina sjukstuga hälsocentral",
    "address": "Volgsjövägen 37, 912 32 Vilhelmina",
    "phone": "090-785 91 25",
    "internationalPhone": "+46907859125",
    "url": "https://www.1177.se/hitta-vard/kontaktkort/Vilhelmina-sjukstuga-halsocentral/",
    "lat": 64.625086471245,
    "lng": 16.66232849898825,
    "hasMvkServices": true,
    "hasListing": true,
    "videoOrChat": false,
    "vaccinatesForFlu": false,
    "vaccinatesForCovid19": false
  },
  {
    "hsaId": "SE2321000222-0255070",
    "name": "Medicinkonsulten hälsocentral",
    "address": "Skolgatan 8, 921 31 Lycksele",
    "phone": "090-785 93 80",
    "internationalPhone": "+46907859380",
    "url": "https://www.1177.se/hitta-vard/kontaktkort/Medicinkonsulten-halsocentral/",
    "lat": 64.59246225123054,
    "lng": 18.674387839138266,
    "hasMvkServices": true,
    "hasListing": true,
    "videoOrChat": false,
    "vaccinatesForFlu": false,
    "vaccinatesForCovid19": false
  },
  {
    "hsaId": "SE2321000222-0000099",
    "name": "Stenbergska hälsocentral",
    "address": "Johan Skyttes väg 6, 921 24 Lycksele",
    "phone": "090-785 44 48",
    "internationalPhone": "+46907854448",
    "url": "https://www.1177.se/hitta-vard/kontaktkort/Stenbergska-halsocentral/",
    "lat": 64.59984994028584,
    "lng": 18.673473259388757,
    "hasMvkServices": true,
    "hasListing": true,
    "videoOrChat": false,
    "vaccinatesForFlu": false,
    "vaccinatesForCovid19": false
  },
  {
    "hsaId": "SE2321000214-E023618",
    "name": "Järpens hälsocentral",
    "address": "Skolvägen 29, 837 31 Järpen",
    "phone": "0647-165 50",
    "internationalPhone": "+4664716550",
    "url": "https://www.1177.se/hitta-vard/kontaktkort/Jarpens-halsocentral/",
    "lat": 63.348366542446485,
    "lng": 13.45867385070015,
    "hasMvkServices": true,
    "hasListing": true,
    "videoOrChat": false,
    "vaccinatesForFlu": false,
    "vaccinatesForCovid19": false
  },
  {
    "hsaId": "SE2321000198-054415",
    "name": "Barnavårdscentral Hamrånge Din hälsocentral",
    "address": "Solbergsvägen 5, 817 40 Bergby",
    "phone": "0297-101 91",
    "internationalPhone": "+4629710191",
    "url": "https://www.1177.se/hitta-vard/kontaktkort/Barnavardscentral-Hamrange-Din-halsocentral/",
    "lat": 60.92825391723462,
    "lng": 17.0422008729939,
    "hasMvkServices": false,
    "hasListing": false,
    "videoOrChat": false,
    "vaccinatesForFlu": false,
    "vaccinatesForCovid19": false
  },
  {
    "hsaId": "SE2321000198-054414",
    "name": "Hamrånge Din hälsocentral",
    "address": "Solbergsvägen 5, 817 40 Bergby",
    "phone": "0297-101 91",
    "internationalPhone": "+4629710191",
    "url": "https://www.1177.se/hitta-vard/kontaktkort/Hamrange-Din-halsocentral/",
    "lat": 60.92825391723462,
    "lng": 17.0422008729939,
    "hasMvkServices": true,
    "hasListing": true,
    "videoOrChat": false,
    "vaccinatesForFlu": false,
    "vaccinatesForCovid19": false
  },
  {
    "hsaId": "SE2321000198-054463",
    "name": "Barnavårdscentral Ockelbo Din hälsocentral",
    "address": "Sjöängsvägen 26, 816 30 Ockelbo",
    "phone": "0297-57 25 27",
    "internationalPhone": "+46297572527",
    "url": "https://www.1177.se/hitta-vard/kontaktkort/Barnavardscentral-Ockelbo-Din-halsocentral/",
    "lat": 60.888917267166995,
    "lng": 16.713906476850145,
    "hasMvkServices": false,
    "hasListing": false,
    "videoOrChat": false,
    "vaccinatesForFlu": false,
    "vaccinatesForCovid19": false
  },
  {
    "hsaId": "SE2321000198-054462",
    "name": "Ockelbo Din hälsocentral",
    "address": "Sjöängsvägen 26, 816 30 Ockelbo",
    "phone": "0297-57 25 00",
    "internationalPhone": "+46297572500",
    "url": "https://www.1177.se/hitta-vard/kontaktkort/Ockelbo-Din-halsocentral/",
    "lat": 60.8888379977894,
    "lng": 16.713683202983308,
    "hasMvkServices": true,
    "hasListing": true,
    "videoOrChat": false,
    "vaccinatesForFlu": false,
    "vaccinatesForCovid19": false
  },
  {
    "hsaId": "SE2321000214-E023619",
    "name": "Åre hälsocentral",
    "address": "Kurortsvägen 20, 837 51 Åre",
    "phone": "0647-166 00",
    "internationalPhone": "+4664716600",
    "url": "https://www.1177.se/hitta-vard/kontaktkort/Are-halsocentral/",
    "lat": 63.395299134639394,
    "lng": 13.096173059137765,
    "hasMvkServices": true,
    "hasListing": true,
    "videoOrChat": false,
    "vaccinatesForFlu": false,
    "vaccinatesForCovid19": false
  },
  {
    "hsaId": "SE2321000214-0045128",
    "name": "Byfilialen Åre hälsocentral",
    "address": "Stationsvägen 9 A, 837 52 Åre",
    "phone": "0647-166 00",
    "internationalPhone": "+4664716600",
    "url": "https://www.1177.se/hitta-vard/kontaktkort/Byfilialen-Are-halsocentral/",
    "lat": 63.39944916262687,
    "lng": 13.077921937526986,
    "hasMvkServices": false,
    "hasListing": false,
    "videoOrChat": false,
    "vaccinatesForFlu": false,
    "vaccinatesForCovid19": false
  },
  {
    "hsaId": "SE2321000222-0269439",
    "name": "Barnhälsovård Robertsfors hälsocentral",
    "address": "Fabriksvägen 3, 915 32 Robertsfors",
    "phone": "090-785 91 21",
    "internationalPhone": "+46907859121",
    "url": "https://www.1177.se/hitta-vard/kontaktkort/Barnhalsovard-Robertsfors-halsocentral/",
    "lat": 64.1927516846582,
    "lng": 20.844570681764722,
    "hasMvkServices": true,
    "hasListing": false,
    "videoOrChat": false,
    "vaccinatesForFlu": false,
    "vaccinatesForCovid19": false
  },
  {
    "hsaId": "SE2321000222-0269440",
    "name": "Barnmorskemottagning Robertsfors hälsocentral",
    "address": "Fabriksvägen 3, 915 32 Robertsfors",
    "phone": "090-785 91 21",
    "internationalPhone": "+46907859121",
    "url": "https://www.1177.se/hitta-vard/kontaktkort/Barnmorskemottagning-Robertsfors-halsocentral/",
    "lat": 64.1927516846582,
    "lng": 20.844570681764722,
    "hasMvkServices": true,
    "hasListing": false,
    "videoOrChat": false,
    "vaccinatesForFlu": false,
    "vaccinatesForCovid19": false
  },
  {
    "hsaId": "SE2321000222-0000366",
    "name": "Robertsfors hälsocentral",
    "address": "Fabriksvägen 3, 915 32 Robertsfors",
    "phone": "090-785 91 21",
    "internationalPhone": "+46907859121",
    "url": "https://www.1177.se/hitta-vard/kontaktkort/Robertsfors-halsocentral/",
    "lat": 64.1927516846582,
    "lng": 20.844570681764722,
    "hasMvkServices": true,
    "hasListing": true,
    "videoOrChat": false,
    "vaccinatesForFlu": false,
    "vaccinatesForCovid19": false
  },
  {
    "hsaId": "SE2321000214-0050337",
    "name": "Hälsocentralen Renen, Duved",
    "address": "Karolinervägen 9, 837 71 Duved",
    "phone": "0647-28 37 80",
    "internationalPhone": "+46647283780",
    "url": "https://www.1177.se/hitta-vard/kontaktkort/Halsocentralen-Renen-Duved/",
    "lat": 63.39339006844693,
    "lng": 12.91464689650043,
    "hasMvkServices": true,
    "hasListing": true,
    "videoOrChat": false,
    "vaccinatesForFlu": false,
    "vaccinatesForCovid19": false
  },
  {
    "hsaId": "SE2321000198-054420",
    "name": "Barnavårdscentral Strömsbro Din hälsocentral",
    "address": "Gamla Bönavägen 19, 806 46 Gävle",
    "phone": "026-15 77 50",
    "internationalPhone": "+4626157750",
    "url": "https://www.1177.se/hitta-vard/kontaktkort/Barnavardscentral-Stromsbro-Din-halsocentral/",
    "lat": 60.7061988474362,
    "lng": 17.162714883826478,
    "hasMvkServices": false,
    "hasListing": false,
    "videoOrChat": false,
    "vaccinatesForFlu": false,
    "vaccinatesForCovid19": false
  },
  {
    "hsaId": "SE2321000198-054419",
    "name": "Strömsbro Din hälsocentral",
    "address": "Gamla Bönavägen 19, 806 46 Gävle",
    "phone": "026-15 77 50",
    "internationalPhone": "+4626157750",
    "url": "https://www.1177.se/hitta-vard/kontaktkort/Stromsbro-Din-halsocentral/",
    "lat": 60.70585457052626,
    "lng": 17.1630300508901,
    "hasMvkServices": true,
    "hasListing": true,
    "videoOrChat": false,
    "vaccinatesForFlu": false,
    "vaccinatesForCovid19": false
  },
  {
    "hsaId": "SE2321000198-054422",
    "name": "Barnavårdscentral Sätra Din hälsocentral",
    "address": "Rullstensvägen 1, 806 31 Gävle",
    "phone": "026-15 77 77",
    "internationalPhone": "+4626157777",
    "url": "https://www.1177.se/hitta-vard/kontaktkort/Barnavardscentral-Satra-Din-halsocentral/",
    "lat": 60.692787500165245,
    "lng": 17.115923120784043,
    "hasMvkServices": false,
    "hasListing": false,
    "videoOrChat": false,
    "vaccinatesForFlu": false,
    "vaccinatesForCovid19": false
  },
  {
    "hsaId": "SE2321000198-054421",
    "name": "Sätra Din hälsocentral",
    "address": "Norrbågen 32, 806 31 Gävle",
    "phone": "026-15 77 77",
    "internationalPhone": "+4626157777",
    "url": "https://www.1177.se/hitta-vard/kontaktkort/Satra-Din-halsocentral/",
    "lat": 60.6925334126675,
    "lng": 17.116205708723946,
    "hasMvkServices": true,
    "hasListing": true,
    "videoOrChat": false,
    "vaccinatesForFlu": false,
    "vaccinatesForCovid19": false
  },
  {
    "hsaId": "SE2321000180-475R",
    "name": "Primärvårdsrehabilitering Orsa",
    "address": "Kaplansgatan 19, Orsa",
    "phone": "0250-49 88 48",
    "internationalPhone": "+46250498848",
    "url": "https://www.1177.se/hitta-vard/kontaktkort/Primarvardsrehabilitering-Orsa/",
    "lat": 61.11876245714726,
    "lng": 14.614132251568249,
    "hasMvkServices": false,
    "hasListing": false,
    "videoOrChat": false,
    "vaccinatesForFlu": false,
    "vaccinatesForCovid19": false
  },
  {
    "hsaId": "SE2321000180-46KB",
    "name": "Vårdcentral Orsa",
    "address": "Kaplansgatan 19, Orsa",
    "phone": "0250-49 88 00",
    "internationalPhone": "+46250498800",
    "url": "https://www.1177.se/hitta-vard/kontaktkort/Vardcentral-Orsa/",
    "lat": 61.11876245714726,
    "lng": 14.614132251568249,
    "hasMvkServices": true,
    "hasListing": true,
    "videoOrChat": false,
    "vaccinatesForFlu": false,
    "vaccinatesForCovid19": false
  },
  {
    "hsaId": "SE2321000198-053992",
    "name": "Hälsocentralen Sjöstaden",
    "address": "Alderholmsgatan 7, 803 02 Gävle",
    "phone": "026-19 31 31",
    "internationalPhone": "+4626193131",
    "url": "https://www.1177.se/hitta-vard/kontaktkort/Halsocentralen-Sjostaden/",
    "lat": 60.678703773607175,
    "lng": 17.16287504138493,
    "hasMvkServices": false,
    "hasListing": true,
    "videoOrChat": false,
    "vaccinatesForFlu": false,
    "vaccinatesForCovid19": false
  },
  {
    "hsaId": "SE2321000198-054413",
    "name": "Barnavårdscentral Gävle Strand Din hälsocentral",
    "address": "Norra Skeppsbron 13 A, 803 10 Gävle",
    "phone": "026-63 70 00",
    "internationalPhone": "+4626637000",
    "url": "https://www.1177.se/hitta-vard/kontaktkort/Barnavardscentral-Gavle-Strand-Din-halsocentral/",
    "lat": 60.67800376101386,
    "lng": 17.15931379562178,
    "hasMvkServices": false,
    "hasListing": false,
    "videoOrChat": false,
    "vaccinatesForFlu": false,
    "vaccinatesForCovid19": false
  },
  {
    "hsaId": "SE2321000198-054412",
    "name": "Gävle Strand Din hälsocentral",
    "address": "Norra Skeppsbron 13 A, 803 10 Gävle",
    "phone": "026-63 70 00",
    "internationalPhone": "+4626637000",
    "url": "https://www.1177.se/hitta-vard/kontaktkort/Gavle-Strand-Din-halsocentral/",
    "lat": 60.67799589736783,
    "lng": 17.159203669297018,
    "hasMvkServices": true,
    "hasListing": true,
    "videoOrChat": false,
    "vaccinatesForFlu": false,
    "vaccinatesForCovid19": false
  },
  {
    "hsaId": "SE2321000198-055174",
    "name": "Familjeläkarjour Gävle",
    "address": "Lasarettsvägen 1, 801 88 Gävle",
    "phone": "1177",
    "internationalPhone": "1177",
    "url": "https://www.1177.se/hitta-vard/kontaktkort/Familjelakarjour-Gavle/",
    "lat": 60.67737471357326,
    "lng": 17.11879184884356,
    "hasMvkServices": false,
    "hasListing": false,
    "videoOrChat": false,
    "vaccinatesForFlu": false,
    "vaccinatesForCovid19": false
  },
  {
    "hsaId": "SE2321000198-024432",
    "name": "Capio Barnavårdcentral Bomhus",
    "address": "Solgårdsgatan 2, Gävle",
    "phone": "026-450 47 50",
    "internationalPhone": "+46264504750",
    "url": "https://www.1177.se/hitta-vard/kontaktkort/Capio-Barnavardcentral-Bomhus/",
    "lat": 60.67433808375775,
    "lng": 17.21450954393283,
    "hasMvkServices": false,
    "hasListing": false,
    "videoOrChat": false,
    "vaccinatesForFlu": false,
    "vaccinatesForCovid19": false
  },
  {
    "hsaId": "SE2321000198-022708",
    "name": "Capio Hälsocentral Bomhus",
    "address": "Solgårdsgatan 2, 804 30 Gävle",
    "phone": "026-450 47 50",
    "internationalPhone": "+46264504750",
    "url": "https://www.1177.se/hitta-vard/kontaktkort/Capio-Halsocentral-Bomhus/",
    "lat": 60.67433827605136,
    "lng": 17.214491254825862,
    "hasMvkServices": true,
    "hasListing": true,
    "videoOrChat": false,
    "vaccinatesForFlu": false,
    "vaccinatesForCovid19": false
  },
  {
    "hsaId": "SE2321000198-022338",
    "name": "Hälsocentralen City",
    "address": "Drottninggatan 29, 803 11 Gävle",
    "phone": "026-65 03 00",
    "internationalPhone": "+4626650300",
    "url": "https://www.1177.se/hitta-vard/kontaktkort/Halsocentralen-City/",
    "lat": 60.67559608902873,
    "lng": 17.147026269637145,
    "hasMvkServices": true,
    "hasListing": true,
    "videoOrChat": false,
    "vaccinatesForFlu": false,
    "vaccinatesForCovid19": false
  },
  {
    "hsaId": "SE2321000198-029091",
    "name": "Eira hälsocentral",
    "address": "Eira hälsocentral, Slottstorget 3, 802 50 Gävle",
    "phone": "026-60 09 09",
    "internationalPhone": "+4626600909",
    "url": "https://www.1177.se/hitta-vard/kontaktkort/Eira-halsocentral/",
    "lat": 60.672664545018726,
    "lng": 17.14756300336668,
    "hasMvkServices": true,
    "hasListing": true,
    "videoOrChat": false,
    "vaccinatesForFlu": false,
    "vaccinatesForCovid19": false
  },
  {
    "hsaId": "SE2321000198-045953",
    "name": "Barnavårdscentral Eira hälsocentral",
    "address": "Eira hälsocentral, Slottstorget 5 A, 802 50 Gävle",
    "phone": "026-60 09 09",
    "internationalPhone": "+4626600909",
    "url": "https://www.1177.se/hitta-vard/kontaktkort/Barnavardscentral-Eira-halsocentral/",
    "lat": 60.67266839065928,
    "lng": 17.147178941232625,
    "hasMvkServices": false,
    "hasListing": false,
    "videoOrChat": false,
    "vaccinatesForFlu": false,
    "vaccinatesForCovid19": false
  },
  {
    "hsaId": "SE2321000198-053914",
    "name": "Capio barnavårdscentral Brynäs",
    "address": "Eriksbergsgatan 18, 802 84 Gävle",
    "phone": "",
    "internationalPhone": "",
    "url": "https://www.1177.se/hitta-vard/kontaktkort/Capio-barnavardscentral-Brynas/",
    "lat": 60.671421427659126,
    "lng": 17.16580690160285,
    "hasMvkServices": false,
    "hasListing": false,
    "videoOrChat": false,
    "vaccinatesForFlu": false,
    "vaccinatesForCovid19": false
  },
  {
    "hsaId": "SE2321000198-019907",
    "name": "Capio Hälsocentral Brynäs",
    "address": "Eriksbergsgatan 18, 802 84 Gävle",
    "phone": "026-450 48 00",
    "internationalPhone": "+46264504800",
    "url": "https://www.1177.se/hitta-vard/kontaktkort/Capio-Halsocentral-Brynas/",
    "lat": 60.67141245547912,
    "lng": 17.165806523215437,
    "hasMvkServices": true,
    "hasListing": true,
    "videoOrChat": false,
    "vaccinatesForFlu": false,
    "vaccinatesForCovid19": false
  },
  {
    "hsaId": "SE2321000198-054424",
    "name": "Barnavårdscentral Södertull Din hälsocentral",
    "address": "Kaserngatan 48, 802 53 Gävle",
    "phone": "026-15 55 31",
    "internationalPhone": "+4626155531",
    "url": "https://www.1177.se/hitta-vard/kontaktkort/Barnavardscentral-Sodertull-Din-halsocentral/",
    "lat": 60.666505535104626,
    "lng": 17.149501923435857,
    "hasMvkServices": false,
    "hasListing": false,
    "videoOrChat": false,
    "vaccinatesForFlu": false,
    "vaccinatesForCovid19": false
  },
  {
    "hsaId": "SE2321000198-053915",
    "name": "Capio barnavårdscentral Gävle",
    "address": "Kaserngatan 48 3 tr, 801 30 Gävle",
    "phone": "026-450 48 96",
    "internationalPhone": "+46264504896",
    "url": "https://www.1177.se/hitta-vard/kontaktkort/Capio-barnavardscentral-Gavle/",
    "lat": 60.666104335602064,
    "lng": 17.150125450286673,
    "hasMvkServices": false,
    "hasListing": false,
    "videoOrChat": false,
    "vaccinatesForFlu": false,
    "vaccinatesForCovid19": false
  },
  {
    "hsaId": "SE2321000198-019908",
    "name": "Capio Hälsocentral Gävle",
    "address": "Kaserngatan 48 3 tr, 802 53 Gävle",
    "phone": "026-450 48 50",
    "internationalPhone": "+46264504850",
    "url": "https://www.1177.se/hitta-vard/kontaktkort/Capio-Halsocentral-Gavle/",
    "lat": 60.66610451909099,
    "lng": 17.150107165355614,
    "hasMvkServices": true,
    "hasListing": true,
    "videoOrChat": false,
    "vaccinatesForFlu": false,
    "vaccinatesForCovid19": false
  },
  {
    "hsaId": "SE2321000198-054423",
    "name": "Södertull Din hälsocentral",
    "address": "Kaserngatan 48, 802 53 Gävle",
    "phone": "026-15 55 31",
    "internationalPhone": "+4626155531",
    "url": "https://www.1177.se/hitta-vard/kontaktkort/Sodertull-Din-halsocentral/",
    "lat": 60.66610451909099,
    "lng": 17.150107165355614,
    "hasMvkServices": true,
    "hasListing": true,
    "videoOrChat": false,
    "vaccinatesForFlu": false,
    "vaccinatesForCovid19": false
  },
  {
    "hsaId": "SE2321000222-0000417",
    "name": "Burträsk hälsocentral",
    "address": "Björnåkersgatan 10, 937 31 Burträsk",
    "phone": "090-785 91 73",
    "internationalPhone": "+46907859173",
    "url": "https://www.1177.se/hitta-vard/kontaktkort/Burtrask-halsocentral/",
    "lat": 64.5175640324598,
    "lng": 20.65436866394136,
    "hasMvkServices": true,
    "hasListing": true,
    "videoOrChat": false,
    "vaccinatesForFlu": false,
    "vaccinatesForCovid19": false
  },
  {
    "hsaId": "SE2321000222-0269421",
    "name": "Barnmorskemottagning Burträsk hälsocentral",
    "address": "Björnåkersgatan 10, 937 31 Burträsk",
    "phone": "090-785 91 73",
    "internationalPhone": "+46907859173",
    "url": "https://www.1177.se/hitta-vard/kontaktkort/Barnmorskemottagning-Burtrask-halsocentral/",
    "lat": 64.5175640324598,
    "lng": 20.65436866394136,
    "hasMvkServices": false,
    "hasListing": false,
    "videoOrChat": false,
    "vaccinatesForFlu": false,
    "vaccinatesForCovid19": false
  },
  {
    "hsaId": "SE2321000222-0269420",
    "name": "Barnhälsovård Burträsk hälsocentral",
    "address": "Björnåkersgatan 10, 937 31 Burträsk",
    "phone": "090-785 91 73",
    "internationalPhone": "+46907859173",
    "url": "https://www.1177.se/hitta-vard/kontaktkort/Barnhalsovard-Burtrask-halsocentral/",
    "lat": 64.5175640324598,
    "lng": 20.65436866394136,
    "hasMvkServices": true,
    "hasListing": false,
    "videoOrChat": false,
    "vaccinatesForFlu": false,
    "vaccinatesForCovid19": false
  },
  {
    "hsaId": "SE2321000198-054411",
    "name": "Barnavårdscentral Andersberg Din hälsocentral",
    "address": "Vinddraget 22, 802 77 Gävle",
    "phone": "026-15 77 00",
    "internationalPhone": "+4626157700",
    "url": "https://www.1177.se/hitta-vard/kontaktkort/Barnavardscentral-Andersberg-Din-halsocentral/",
    "lat": 60.65146207035589,
    "lng": 17.1386912385663,
    "hasMvkServices": false,
    "hasListing": false,
    "videoOrChat": false,
    "vaccinatesForFlu": false,
    "vaccinatesForCovid19": false
  },
  {
    "hsaId": "SE2321000198-054410",
    "name": "Andersberg Din hälsocentral",
    "address": "Vinddraget 18, 802 77 Gävle",
    "phone": "026-15 77 00",
    "internationalPhone": "+4626157700",
    "url": "https://www.1177.se/hitta-vard/kontaktkort/Andersberg-Din-halsocentral/",
    "lat": 60.65020018396764,
    "lng": 17.137414131926725,
    "hasMvkServices": true,
    "hasListing": true,
    "videoOrChat": false,
    "vaccinatesForFlu": false,
    "vaccinatesForCovid19": false
  },
  {
    "hsaId": "SE2321000198-054426",
    "name": "Barnavårdscentral Valbo Din hälsocentral",
    "address": "Bäckvägen 5, 818 31 Valbo",
    "phone": "026-15 77 80",
    "internationalPhone": "+4626157780",
    "url": "https://www.1177.se/hitta-vard/kontaktkort/Barnavardscentral-Valbo-Din-halsocentral/",
    "lat": 60.64399730260524,
    "lng": 17.007463425903786,
    "hasMvkServices": false,
    "hasListing": false,
    "videoOrChat": false,
    "vaccinatesForFlu": false,
    "vaccinatesForCovid19": false
  },
  {
    "hsaId": "SE2321000198-054425",
    "name": "Valbo Din hälsocentral",
    "address": "Bäckvägen 5, 818 31 Valbo",
    "phone": "026-15 77 80",
    "internationalPhone": "+4626157780",
    "url": "https://www.1177.se/hitta-vard/kontaktkort/Valbo-Din-halsocentral/",
    "lat": 60.64399730260524,
    "lng": 17.007463425903786,
    "hasMvkServices": true,
    "hasListing": true,
    "videoOrChat": false,
    "vaccinatesForFlu": false,
    "vaccinatesForCovid19": false
  },
  {
    "hsaId": "SE2321000180-4702",
    "name": "Vårdcentral Norslund-Svärdsjö, Mottagning Svärdsjö",
    "address": "Björkvägen 2, Svärdsjö",
    "phone": "0246-49 15 00",
    "internationalPhone": "+46246491500",
    "url": "https://www.1177.se/hitta-vard/kontaktkort/Vardcentral-Norslund-Svardsjo-Mottagning-Svardsjo/",
    "lat": 60.74155295924623,
    "lng": 15.908466950321873,
    "hasMvkServices": false,
    "hasListing": false,
    "videoOrChat": false,
    "vaccinatesForFlu": false,
    "vaccinatesForCovid19": false
  },
  {
    "hsaId": "SE162321000024-0020009",
    "name": "Barnmorska Skutskärs vårdcentral, Skutskär",
    "address": "Lillängsgatan 8, Skutskär",
    "phone": "018-611 03 00",
    "internationalPhone": "+46186110300",
    "url": "https://www.1177.se/hitta-vard/kontaktkort/Barnmorska-Skutskars-vardcentral-Skutskar/",
    "lat": 60.626244997284715,
    "lng": 17.411306456013072,
    "hasMvkServices": true,
    "hasListing": false,
    "videoOrChat": false,
    "vaccinatesForFlu": false,
    "vaccinatesForCovid19": false
  },
  {
    "hsaId": "SE162321000024-0068921",
    "name": "Ungdomsmottagning Skutskärs vårdcentral, Skutskär",
    "address": "Lillängsgatan 8, Skutskär",
    "phone": "018-611 03 00",
    "internationalPhone": "+46186110300",
    "url": "https://www.1177.se/hitta-vard/kontaktkort/Ungdomsmottagning-Skutskars-vardcentral-Skutskar/",
    "lat": 60.626244997284715,
    "lng": 17.411306456013072,
    "hasMvkServices": true,
    "hasListing": false,
    "videoOrChat": false,
    "vaccinatesForFlu": false,
    "vaccinatesForCovid19": false
  },
  {
    "hsaId": "SE162321000024-0023204",
    "name": "Barnavårdscentral Skutskärs vårdcentral, Skutskär",
    "address": "Lillängsgatan 8, Skutskär",
    "phone": "018-611 03 00",
    "internationalPhone": "+46186110300",
    "url": "https://www.1177.se/hitta-vard/kontaktkort/Barnavardscentral-Skutskars-vardcentral-Skutskar/",
    "lat": 60.626244997284715,
    "lng": 17.411306456013072,
    "hasMvkServices": true,
    "hasListing": false,
    "videoOrChat": false,
    "vaccinatesForFlu": false,
    "vaccinatesForCovid19": false
  },
  {
    "hsaId": "SE162321000024-0019970",
    "name": "Skutskärs vårdcentral, Skutskär",
    "address": "Lillängsgatan 8, Skutskär",
    "phone": "018-611 03 00",
    "internationalPhone": "+46186110300",
    "url": "https://www.1177.se/hitta-vard/kontaktkort/Skutskars-vardcentral-Skutskar/",
    "lat": 60.626244997284715,
    "lng": 17.411306456013072,
    "hasMvkServices": true,
    "hasListing": true,
    "videoOrChat": false,
    "vaccinatesForFlu": false,
    "vaccinatesForCovid19": false
  },
  {
    "hsaId": "SE2321000222-0269442",
    "name": "Barnhälsovård Storuman hälsocentral",
    "address": "Backvägen 2, 923 32 Storuman",
    "phone": "090-785 44 73",
    "internationalPhone": "+46907854473",
    "url": "https://www.1177.se/hitta-vard/kontaktkort/Barnhalsovard-Storuman-halsocentral/",
    "lat": 65.09670707643072,
    "lng": 17.121804197752063,
    "hasMvkServices": true,
    "hasListing": false,
    "videoOrChat": false,
    "vaccinatesForFlu": false,
    "vaccinatesForCovid19": false
  },
  {
    "hsaId": "SE2321000222-0000294",
    "name": "Storumans sjukstuga hälsocentral",
    "address": "Backvägen 2, 923 32 Storuman",
    "phone": "090-785 44 73",
    "internationalPhone": "+46907854473",
    "url": "https://www.1177.se/hitta-vard/kontaktkort/Storumans-sjukstuga-halsocentral/",
    "lat": 65.09670707643072,
    "lng": 17.121804197752063,
    "hasMvkServices": true,
    "hasListing": true,
    "videoOrChat": false,
    "vaccinatesForFlu": false,
    "vaccinatesForCovid19": false
  },
  {
    "hsaId": "SE2321000222-0269444",
    "name": "Barnmorskemottagning Storuman hälsocentral",
    "address": "Backvägen 2, 923 32 Storuman",
    "phone": "090-785 44 73",
    "internationalPhone": "+46907854473",
    "url": "https://www.1177.se/hitta-vard/kontaktkort/Barnmorskemottagning-Storuman-halsocentral/",
    "lat": 65.09670707643072,
    "lng": 17.121804197752063,
    "hasMvkServices": true,
    "hasListing": false,
    "videoOrChat": false,
    "vaccinatesForFlu": false,
    "vaccinatesForCovid19": false
  },
  {
    "hsaId": "SE2321000180-4H21",
    "name": "Primärvårdsrehabilitering Rättvik",
    "address": "Centralgatan 1, Rättvik",
    "phone": "0248-49 47 28",
    "internationalPhone": "+46248494728",
    "url": "https://www.1177.se/hitta-vard/kontaktkort/Primarvardsrehabilitering-Rattvik/",
    "lat": 60.888698342428576,
    "lng": 15.115716870464983,
    "hasMvkServices": false,
    "hasListing": false,
    "videoOrChat": false,
    "vaccinatesForFlu": false,
    "vaccinatesForCovid19": false
  },
  {
    "hsaId": "SE2321000180-46XM",
    "name": "Vårdcentral Rättvik",
    "address": "Centralgatan 1, Rättvik",
    "phone": "0248-49 47 28",
    "internationalPhone": "+46248494728",
    "url": "https://www.1177.se/hitta-vard/kontaktkort/Vardcentral-Rattvik/",
    "lat": 60.888698342428576,
    "lng": 15.115716870464983,
    "hasMvkServices": true,
    "hasListing": true,
    "videoOrChat": false,
    "vaccinatesForFlu": false,
    "vaccinatesForCovid19": false
  },
  {
    "hsaId": "SE2321000214-E023602",
    "name": "Funäsdalens hälsocentral",
    "address": "Rörosvägen 35, 846 72 Funäsdalen",
    "phone": "0684-160 60",
    "internationalPhone": "+4668416060",
    "url": "https://www.1177.se/hitta-vard/kontaktkort/Funasdalens-halsocentral/",
    "lat": 62.54916504945057,
    "lng": 12.526156892311203,
    "hasMvkServices": true,
    "hasListing": true,
    "videoOrChat": false,
    "vaccinatesForFlu": false,
    "vaccinatesForCovid19": false
  },
  {
    "hsaId": "SE2321000222-0000297",
    "name": "Norsjö hälsocentral",
    "address": "Storgatan 33, 935 32 Norsjö",
    "phone": "090-785 91 16",
    "internationalPhone": "+46907859116",
    "url": "https://www.1177.se/hitta-vard/kontaktkort/Norsjo-halsocentral/",
    "lat": 64.90894017118801,
    "lng": 19.492159861085895,
    "hasMvkServices": true,
    "hasListing": true,
    "videoOrChat": false,
    "vaccinatesForFlu": false,
    "vaccinatesForCovid19": false
  },
  {
    "hsaId": "SE2321000198-022500",
    "name": "Hälsopartner hälsocentral",
    "address": "Torggatan 7, 811 39  SANDVIKEN",
    "phone": "026-14 96 00",
    "internationalPhone": "+4626149600",
    "url": "https://www.1177.se/hitta-vard/kontaktkort/Halsopartner-halsocentral/",
    "lat": 60.621293487006156,
    "lng": 16.773102868647445,
    "hasMvkServices": true,
    "hasListing": true,
    "videoOrChat": false,
    "vaccinatesForFlu": false,
    "vaccinatesForCovid19": false
  },
  {
    "hsaId": "SE2321000180-4768",
    "name": "Primärvårdsrehabilitering Älvdalen",
    "address": "Furuvägen 12, Älvdalen",
    "phone": "0251-49 86 02",
    "internationalPhone": "+46251498602",
    "url": "https://www.1177.se/hitta-vard/kontaktkort/Primarvardsrehabilitering-Alvdalen/",
    "lat": 61.23142234506429,
    "lng": 14.041011676853403,
    "hasMvkServices": false,
    "hasListing": false,
    "videoOrChat": false,
    "vaccinatesForFlu": false,
    "vaccinatesForCovid19": false
  },
  {
    "hsaId": "SE2321000180-46ZP",
    "name": "Vårdcentral Älvdalen",
    "address": "Furuvägen 12, Älvdalen",
    "phone": "0251-49 86 02",
    "internationalPhone": "+46251498602",
    "url": "https://www.1177.se/hitta-vard/kontaktkort/Vardcentral-Alvdalen/",
    "lat": 61.231288041951586,
    "lng": 14.041037825862745,
    "hasMvkServices": true,
    "hasListing": true,
    "videoOrChat": false,
    "vaccinatesForFlu": false,
    "vaccinatesForCovid19": false
  },
  {
    "hsaId": "SE2321000180-479H",
    "name": "Primärvårdsrehabilitering Mora",
    "address": "Mora lasarett",
    "phone": "0250-49 37 25",
    "internationalPhone": "+46250493725",
    "url": "https://www.1177.se/hitta-vard/kontaktkort/Primarvardsrehabilitering-Mora/",
    "lat": 61.01628283633214,
    "lng": 14.584949020866322,
    "hasMvkServices": false,
    "hasListing": false,
    "videoOrChat": false,
    "vaccinatesForFlu": false,
    "vaccinatesForCovid19": false
  },
  {
    "hsaId": "SE2321000180-46SD",
    "name": "Vårdcentral Mora",
    "address": "Mora lasarett",
    "phone": "0250-49 37 02",
    "internationalPhone": "+46250493702",
    "url": "https://www.1177.se/hitta-vard/kontaktkort/Vardcentral-Mora/",
    "lat": 61.01628283633214,
    "lng": 14.584949020866322,
    "hasMvkServices": true,
    "hasListing": true,
    "videoOrChat": false,
    "vaccinatesForFlu": false,
    "vaccinatesForCovid19": false
  },
  {
    "hsaId": "SE2321000180-4LZQ",
    "name": "Samtalsmottagning barn och unga Mora, Vårdcentral Mora",
    "address": "Mora lasarett",
    "phone": "0250-49 37 02",
    "internationalPhone": "+46250493702",
    "url": "https://www.1177.se/hitta-vard/kontaktkort/Samtalsmottagning-barn-och-unga-Mora-Vardcentral-Mora/",
    "lat": 61.01628283633214,
    "lng": 14.584949020866322,
    "hasMvkServices": true,
    "hasListing": false,
    "videoOrChat": false,
    "vaccinatesForFlu": false,
    "vaccinatesForCovid19": false
  },
  {
    "hsaId": "SE2321000198-054469",
    "name": "Barnavårdscentral Storvik Din hälsocentral",
    "address": "Lasarettsleden 5, 811 60 Sandviken",
    "phone": "0290-340 10",
    "internationalPhone": "+4629034010",
    "url": "https://www.1177.se/hitta-vard/kontaktkort/Barnavardscentral-Storvik-Din-halsocentral/",
    "lat": 60.60868925150218,
    "lng": 16.759725567989474,
    "hasMvkServices": false,
    "hasListing": false,
    "videoOrChat": false,
    "vaccinatesForFlu": false,
    "vaccinatesForCovid19": false
  },
  {
    "hsaId": "SE2321000198-054467",
    "name": "Barnavårdscentral Sandviken Södra Din hälsocentral",
    "address": "Lasarettsleden 5, 811 60 Sandviken",
    "phone": "026-15 40 00",
    "internationalPhone": "+4626154000",
    "url": "https://www.1177.se/hitta-vard/kontaktkort/Barnavardscentral-Sandviken-Sodra-Din-halsocentral/",
    "lat": 60.60868925150218,
    "lng": 16.759725567989474,
    "hasMvkServices": false,
    "hasListing": false,
    "videoOrChat": false,
    "vaccinatesForFlu": false,
    "vaccinatesForCovid19": false
  },
  {
    "hsaId": "SE2321000198-054465",
    "name": "Barnavårdscentral Sandviken Norra Din hälsocentral",
    "address": "Lasarettsleden 5, 811 60 Sandviken",
    "phone": "026-15 40 00",
    "internationalPhone": "+4626154000",
    "url": "https://www.1177.se/hitta-vard/kontaktkort/Barnavardscentral-Sandviken-Norra-Din-halsocentral/",
    "lat": 60.60868925150218,
    "lng": 16.759725567989474,
    "hasMvkServices": false,
    "hasListing": false,
    "videoOrChat": false,
    "vaccinatesForFlu": false,
    "vaccinatesForCovid19": false
  },
  {
    "hsaId": "SE2321000198-054466",
    "name": "Sandviken Södra Din hälsocentral",
    "address": "Lasarettsleden 4, 811 60 Sandviken",
    "phone": "026-27 80 90",
    "internationalPhone": "+4626278090",
    "url": "https://www.1177.se/hitta-vard/kontaktkort/Sandviken-Sodra-Din-halsocentral/",
    "lat": 60.60868925150218,
    "lng": 16.759725567989474,
    "hasMvkServices": true,
    "hasListing": true,
    "videoOrChat": false,
    "vaccinatesForFlu": false,
    "vaccinatesForCovid19": false
  },
  {
    "hsaId": "SE2321000198-054464",
    "name": "Sandviken Norra Din hälsocentral",
    "address": "Lasarettsleden 5, 811 60 Sandviken",
    "phone": "026-27 81 00",
    "internationalPhone": "+4626278100",
    "url": "https://www.1177.se/hitta-vard/kontaktkort/Sandviken-Norra-Din-halsocentral/",
    "lat": 60.60868925150218,
    "lng": 16.759725567989474,
    "hasMvkServices": true,
    "hasListing": true,
    "videoOrChat": false,
    "vaccinatesForFlu": false,
    "vaccinatesForCovid19": false
  },
  {
    "hsaId": "SE2321000180-4763",
    "name": "Primärvårdsrehabilitering Särna",
    "address": "Sjukstugevägen 16 A, Särna",
    "phone": "0253-49 87 00",
    "internationalPhone": "+46253498700",
    "url": "https://www.1177.se/hitta-vard/kontaktkort/Primarvardsrehabilitering-Sarna/",
    "lat": 61.69151445764659,
    "lng": 13.126230640651576,
    "hasMvkServices": false,
    "hasListing": false,
    "videoOrChat": false,
    "vaccinatesForFlu": false,
    "vaccinatesForCovid19": false
  },
  {
    "hsaId": "SE2321000180-46N1",
    "name": "Vårdcentral Särna",
    "address": "Sjukstugevägen 16 A, Särna",
    "phone": "0253-49 87 00",
    "internationalPhone": "+46253498700",
    "url": "https://www.1177.se/hitta-vard/kontaktkort/Vardcentral-Sarna/",
    "lat": 61.69151445764659,
    "lng": 13.126230640651576,
    "hasMvkServices": true,
    "hasListing": true,
    "videoOrChat": false,
    "vaccinatesForFlu": false,
    "vaccinatesForCovid19": false
  },
  {
    "hsaId": "SE2321000222-0000365",
    "name": "Lövångers hälsocentral",
    "address": "Skogstorpsvägen 12, 932 61 Lövånger",
    "phone": "090-785 91 20",
    "internationalPhone": "+46907859120",
    "url": "https://www.1177.se/hitta-vard/kontaktkort/Lovangers-halsocentral/",
    "lat": 64.36908137825338,
    "lng": 21.311303133544506,
    "hasMvkServices": true,
    "hasListing": true,
    "videoOrChat": false,
    "vaccinatesForFlu": false,
    "vaccinatesForCovid19": false
  },
  {
    "hsaId": "SE2321000198-054468",
    "name": "Storvik Din hälsocentral",
    "address": "Landsvägen 35, 812 30 Storvik",
    "phone": "0290-340 10",
    "internationalPhone": "+4629034010",
    "url": "https://www.1177.se/hitta-vard/kontaktkort/Storvik-Din-halsocentral/",
    "lat": 60.58673202778123,
    "lng": 16.53313697506357,
    "hasMvkServices": true,
    "hasListing": true,
    "videoOrChat": false,
    "vaccinatesForFlu": false,
    "vaccinatesForCovid19": false
  },
  {
    "hsaId": "SE2321000198-054461",
    "name": "Barnavårdscentral Hofors Din hälsocentral",
    "address": "Centralgatan 14, 813 30 Hofors",
    "phone": "0290-297 10",
    "internationalPhone": "+4629029710",
    "url": "https://www.1177.se/hitta-vard/kontaktkort/Barnavardscentral-Hofors-Din-halsocentral/",
    "lat": 60.54766398221302,
    "lng": 16.286551620176898,
    "hasMvkServices": false,
    "hasListing": false,
    "videoOrChat": false,
    "vaccinatesForFlu": false,
    "vaccinatesForCovid19": false
  },
  {
    "hsaId": "SE2321000198-054460",
    "name": "Hofors Din hälsocentral",
    "address": "Centralgatan 14, 813 30 Hofors",
    "phone": "0290-297 10",
    "internationalPhone": "+4629029710",
    "url": "https://www.1177.se/hitta-vard/kontaktkort/Hofors-Din-halsocentral/",
    "lat": 60.54765500765378,
    "lng": 16.286551487168936,
    "hasMvkServices": true,
    "hasListing": true,
    "videoOrChat": false,
    "vaccinatesForFlu": false,
    "vaccinatesForCovid19": false
  },
  {
    "hsaId": "SE2321000180-4GZX",
    "name": "Vårdcentral Britsarvet-Grycksbo",
    "address": "Norra Järnvägsgatan 18, Falun och Drottningvägen 1, Grycksbo",
    "phone": "023-49 20 00",
    "internationalPhone": "+4623492000",
    "url": "https://www.1177.se/hitta-vard/kontaktkort/Vardcentral-Britsarvet-Grycksbo/",
    "lat": 60.62083713064816,
    "lng": 15.622741085965737,
    "hasMvkServices": true,
    "hasListing": true,
    "videoOrChat": false,
    "vaccinatesForFlu": false,
    "vaccinatesForCovid19": false
  },
  {
    "hsaId": "SE2321000222-0000296",
    "name": "Malå sjukstuga hälsocentral",
    "address": "Storgatan 2, 939 31 Malå",
    "phone": "090-785 91 19",
    "internationalPhone": "+46907859119",
    "url": "https://www.1177.se/hitta-vard/kontaktkort/Mala-sjukstuga-halsocentral/",
    "lat": 65.17531659490669,
    "lng": 18.756251410101154,
    "hasMvkServices": true,
    "hasListing": true,
    "videoOrChat": false,
    "vaccinatesForFlu": false,
    "vaccinatesForCovid19": false
  },
  {
    "hsaId": "SE2321000180-5279",
    "name": "Primärvårdsrehabilitering Falun",
    "address": "Psilanders väg 1, Falu lasarett",
    "phone": "023-49 15 50",
    "internationalPhone": "+4623491550",
    "url": "https://www.1177.se/hitta-vard/kontaktkort/Primarvardsrehabilitering-Falun/",
    "lat": 60.61010588602051,
    "lng": 15.645716205266359,
    "hasMvkServices": true,
    "hasListing": false,
    "videoOrChat": false,
    "vaccinatesForFlu": false,
    "vaccinatesForCovid19": false
  },
  {
    "hsaId": "SE2321000180-4LPL",
    "name": "Barnavårdscentral Falu vårdcentral",
    "address": "Södra Mariegatan 18, Falun",
    "phone": "023-661 61 09",
    "internationalPhone": "+46236616109",
    "url": "https://www.1177.se/hitta-vard/kontaktkort/Barnavardscentral-Falu-vardcentral/",
    "lat": 60.61366184575889,
    "lng": 15.619549759194557,
    "hasMvkServices": false,
    "hasListing": false,
    "videoOrChat": false,
    "vaccinatesForFlu": false,
    "vaccinatesForCovid19": false
  },
  {
    "hsaId": "SE2321000180-4BF4",
    "name": "Falu vårdcentral",
    "address": "Södra Mariegatan 18, Falun",
    "phone": "023-661 61 00",
    "internationalPhone": "+46236616100",
    "url": "https://www.1177.se/hitta-vard/kontaktkort/Falu-vardcentral/",
    "lat": 60.61293651794587,
    "lng": 15.620722584676212,
    "hasMvkServices": true,
    "hasListing": true,
    "videoOrChat": false,
    "vaccinatesForFlu": false,
    "vaccinatesForCovid19": false
  },
  {
    "hsaId": "SE2321000180-5BFG",
    "name": "Dietist Primärvård Dalarna",
    "address": "Falu lasarett",
    "phone": "023-49 27 29",
    "internationalPhone": "+4623492729",
    "url": "https://www.1177.se/hitta-vard/kontaktkort/Dietist-Primarvard-Dalarna/",
    "lat": 60.608773301714876,
    "lng": 15.642162601647101,
    "hasMvkServices": true,
    "hasListing": false,
    "videoOrChat": false,
    "vaccinatesForFlu": false,
    "vaccinatesForCovid19": false
  },
  {
    "hsaId": "SE2321000222-0000289",
    "name": "Bolidens hälsocentral",
    "address": "Ringen 76, 936 31 Boliden",
    "phone": "090-785 91 23",
    "internationalPhone": "+46907859123",
    "url": "https://www.1177.se/hitta-vard/kontaktkort/Bolidens-halsocentral/",
    "lat": 64.86139958738863,
    "lng": 20.383782657759937,
    "hasMvkServices": true,
    "hasListing": true,
    "videoOrChat": false,
    "vaccinatesForFlu": false,
    "vaccinatesForCovid19": false
  },
  {
    "hsaId": "SE2321000180-5HZC",
    "name": "Capio Barn- och ungdomspsykiatri Falun",
    "address": "Östra Hamngatan 24",
    "phone": "023-664 05 50",
    "internationalPhone": "+46236640550",
    "url": "https://www.1177.se/hitta-vard/kontaktkort/Capio-Barn-och-ungdomspsykiatri-Falun/",
    "lat": 60.607176124279974,
    "lng": 15.62838693522625,
    "hasMvkServices": true,
    "hasListing": false,
    "videoOrChat": false,
    "vaccinatesForFlu": false,
    "vaccinatesForCovid19": false
  },
  {
    "hsaId": "SE2321000180-46JZ",
    "name": "Vårdcentral Leksand",
    "address": "Rättviksvägen 5, Leksand",
    "phone": "0247-49 49 20",
    "internationalPhone": "+46247494920",
    "url": "https://www.1177.se/hitta-vard/kontaktkort/Vardcentral-Leksand/",
    "lat": 60.73733063195731,
    "lng": 14.998790360852981,
    "hasMvkServices": true,
    "hasListing": true,
    "videoOrChat": false,
    "vaccinatesForFlu": false,
    "vaccinatesForCovid19": false
  },
  {
    "hsaId": "SE2321000180-46W4",
    "name": "Vårdcentral Norslund-Svärdsjö, Mottagning Norslund",
    "address": "Kopparvägen 29, Falun",
    "phone": "023-49 19 10",
    "internationalPhone": "+4623491910",
    "url": "https://www.1177.se/hitta-vard/kontaktkort/Vardcentral-Norslund-Svardsjo-Mottagning-Norslund/",
    "lat": 60.597521305992416,
    "lng": 15.668136405648651,
    "hasMvkServices": false,
    "hasListing": false,
    "videoOrChat": false,
    "vaccinatesForFlu": false,
    "vaccinatesForCovid19": false
  },
  {
    "hsaId": "SE2321000180-4GZZ",
    "name": "Vårdcentral Norslund-Svärdsjö",
    "address": "Norslund: Kopparvägen 29, Falun, Svärdsjö: Björkvägen 2, Svärdsjö",
    "phone": "023-49 19 10",
    "internationalPhone": "+4623491910",
    "url": "https://www.1177.se/hitta-vard/kontaktkort/Vardcentral-Norslund-Svardsjo/",
    "lat": 60.597521305992416,
    "lng": 15.668136405648651,
    "hasMvkServices": true,
    "hasListing": true,
    "videoOrChat": false,
    "vaccinatesForFlu": false,
    "vaccinatesForCovid19": false
  },